     3.04           OBSERVATION DATA    M: Mixed            RINEX VERSION / TYPE
RTKCONV-EX 2.5.0                        20250916 020447 UTC PGM / RUN BY / DATE 
format: u-blox UBX                                          COMMENT             
log: D:\Software\Dropbox\Dropbox\experiment\COM6___9600_2509COMMENT             
  16_020025_blockz.ubx                                      COMMENT             
                                                            MARKER NAME         
                                                            MARKER NUMBER       
                                                            MARKER TYPE         
                                                            OBSERVER / AGENCY   
                                                            REC # / TYPE / VERS 
                                                            ANT # / TYPE        
 -2418220.5428  5385748.0793  2405783.9573                  APPROX POSITION XYZ 
        0.0000        0.0000        0.0000                  ANTENNA: DELTA H/E/N
G    8 C1C L1C D1C S1C C2X L2X D2X S2X                      SYS / # / OBS TYPES 
R    8 C1C L1C D1C S1C C2C L2C D2C S2C                      SYS / # / OBS TYPES 
E    8 C1X L1X D1X S1X C7X L7X D7X S7X                      SYS / # / OBS TYPES 
J    8 C1C L1C D1C S1C C2X L2X D2X S2X                      SYS / # / OBS TYPES 
S    4 C1C L1C D1C S1C                                      SYS / # / OBS TYPES 
C    8 C2I L2I D2I S2I C7I L7I D7I S7I                      SYS / # / OBS TYPES 
  2025    09    16    02    00   54.0060000     GPS         TIME OF FIRST OBS   
  2025    09    16    02    03   59.0060000     GPS         TIME OF LAST OBS    
G L1C                                                       SYS / PHASE SHIFT   
G L2X  0.00000                                              SYS / PHASE SHIFT   
R L1C                                                       SYS / PHASE SHIFT   
R L2C                                                       SYS / PHASE SHIFT   
E L1X  0.00000                                              SYS / PHASE SHIFT   
E L7X  0.00000                                              SYS / PHASE SHIFT   
J L1C                                                       SYS / PHASE SHIFT   
J L2X  0.00000                                              SYS / PHASE SHIFT   
S L1C                                                       SYS / PHASE SHIFT   
C L2I                                                       SYS / PHASE SHIFT   
C L7I                                                       SYS / PHASE SHIFT   
  7 R03  5 R04  6 R05  1 R14 -7 R15  0 R18 -3 R19  3        GLONASS SLOT / FRQ #
 C1C    0.000 C1P    0.000 C2C    0.000 C2P    0.000        GLONASS COD/PHS/BIS 
                                                            END OF HEADER       
> 2025 09 16 02 00 54.0060000  0 20                     
S37  38290220.656   201216467.045        -416.119          43.000  
E04  25260539.506   132745037.623        -513.860          40.000    25260537.773   101713718.332        -393.709          36.000  
J03  38542098.180   202540091.663         492.657          44.000    38542093.517   157823445.9231        383.339          37.000  
J07  38290224.725   201216490.3081       -416.122          39.000    38290215.528   156792031.433        -324.440          35.000  
E06  26058875.439   136940248.208         704.043          34.000                                                                  
G29  23953771.160   125877915.637       -2359.229          37.000                                                                  
C11  24329983.454   126692603.7301      -2572.160          44.000    24329974.022    97966717.275       -1988.954          42.000  
C06  39974142.449   208155854.984        1073.054          35.000    39974134.120   160959270.932         829.632          36.000  
C07  40061520.669   208610867.6511      -1821.526          34.000    40061507.992   161311086.342       -1408.405          33.000  
C09  41037244.898   213691705.844         887.579          31.000    41037239.275   165239954.422         686.488          36.000  
C39  39355265.433   204933204.8981       1051.634          38.000                                                                  
C40  40573966.422   211279267.767       -2094.757          37.000                                                                  
R19  20931574.223   111969807.4931       -531.090          40.000    20931568.921    87087628.7461       -412.884          33.000  
R05  22471638.845                        -428.607          31.000    22471620.372                        -334.181          27.000  
G18  24159004.667   126956428.2931       2534.433          34.000    24159002.165                        1974.718          30.000  
G24  23309906.176   122494382.5041       2471.327          41.000    23309906.135    95450179.8161       1925.781          34.000  
S29  38690962.477   203322379.2581       -416.889          34.000  
S28  39114645.850   205548850.618        -417.424          35.000  
C10  39659428.700   206517037.9621      -1830.125          34.000    39659419.298   159692043.9311      -1414.838          34.000  
C43  23809641.361   123983052.6731      -1253.701          40.000                                                                  
> 2025 09 16 02 00 55.0060000  0 20                     
S37  38290299.834   201216882.985        -416.508          42.000  
E04  25260637.254   132745551.710        -514.844          40.000    25260635.675   101714112.240        -394.446          35.000  
J03  38542004.458   202539599.009         492.137          44.000    38541999.696   157823061.997         383.372          37.000  
J07  38290303.884   201216906.258        -416.556          39.000    38290294.668   156792355.488        -324.071          34.000  
E06  26058742.560   136939543.890         703.364          34.000                                                                  
G29  23954220.126   125880274.937       -2360.507          40.000                                                                  
C11  24330477.446   126695176.013       -2573.002          44.000    24330468.022    97968706.311       -1989.670          41.000  
C06  39973936.480   208154781.942        1072.270          35.000    39973928.071   160958441.181         829.391          37.000  
C07  40061870.571   208612688.888       -1821.605          33.000    40061857.753   161312494.663       -1408.946          32.000  
C09  41037074.416   213690817.914         886.172          31.000    41037068.832   165239267.821         685.774          37.000  
C39  39355063.427   204932153.008        1051.099          38.000                                                                  
C40  40574368.696   211281362.225       -2094.940          37.000                                                                  
R19  20931673.540   111970338.988        -532.804          41.000    20931668.196    87088042.094        -413.950          33.000  
R05  22471715.387   120124415.3961       -429.239          27.000    22471703.625    93429727.6142       -335.570          28.000  
G18  24158522.246   126953893.825        2532.452          34.000    24158519.892    98925089.146        1974.330          30.000  
G24  23309435.963   122491911.247        2470.043          41.000    23309435.836    95448254.146        1924.875          32.000  
S29  38691041.793   203322796.009        -417.413          35.000  
S28  39114725.215   205549267.794        -418.037          37.000  
C10  39659780.135   206518867.888       -1830.804          34.000    39659770.650   159693458.931       -1415.707          34.000  
C43  23809882.032   123984306.571       -1254.933          41.000                                                                  
> 2025 09 16 02 00 56.0060000  0 20                     
S37  38290379.159   201217299.939        -417.135          44.000  
E04  25260735.415   132746067.080        -515.513          43.000    25260733.739   101714507.171        -394.704          35.000  
J03  38541910.951   202539107.417         491.568          45.000    38541906.159   157822678.968         382.982          40.000  
J07  38290383.212   201217323.212        -417.219          40.000    38290374.062   156792680.403        -325.127          38.000  
E06  26058606.822   136938840.911         702.536          37.000    26058598.811                         538.413          27.000  
G29  23954669.318   125882635.593       -2361.072          40.000    23954672.144                       -1840.882          24.000  
C11  24330971.804   126697749.700       -2574.006          43.000    24330962.365    97970696.476       -1990.467          42.000  
C06  39973730.776   208153710.142        1071.337          31.000    39973722.395   160957612.367         828.544          34.000  
C07  40062220.576   208614511.119       -1822.257          36.000    40062207.999   161313903.598       -1409.053          37.000  
C09  41036904.260   213689930.787         887.763          32.000    41036898.477   165238581.867         685.416          34.000  
C39  39354861.596   204931102.152        1050.940          39.000                                                                  
C40  40574771.125   211283457.537       -2095.142          40.000                                                                  
R19  20931773.139   111970872.326        -533.856          43.000    20931768.073    87088456.994        -415.502          35.000  
R05  22471795.287   120124846.746        -431.601          27.000    22471782.862    93430062.8582       -335.989          29.000  
G18  24158040.221   126951360.509        2533.209          35.000    24158037.876    98923115.127        1973.709          30.000  
G24  23308966.045   122489441.364        2469.922          42.000    23308965.800    95446329.631        1924.569          33.000  
S29  38691121.379   203323213.700        -417.824          37.000  
S28  39114804.825   205549685.953        -417.792          37.000  
C10  39660131.801   206520698.895       -1832.218          28.000    39660122.289   159694874.710       -1415.923          35.000  
C43  23810123.292   123985561.989       -1255.653          42.000                                                                  
> 2025 09 16 02 00 57.0060000  0 20                     
S37  38290458.570   201217717.257        -417.241          42.000  
E04  25260833.532   132746583.183        -515.854          41.000    25260831.943   101714902.633        -395.438          36.000  
J03  38541817.492   202538616.278         491.298          44.000    38541812.789   157822296.245         382.897          42.000  
J07  38290462.755   201217740.529        -417.163          38.000    38290453.538   156793005.581        -325.082          38.000  
E06  26058471.461   136938138.651         702.244          37.000    26058464.287   104926637.3781        537.377          28.000  
G29  23955118.771   125884997.060       -2361.222          38.000    23955120.074    98092211.9371      -1839.417          31.000  
C11  24331466.138   126700324.219       -2574.480          39.000    24331456.777    97972687.269       -1990.673          38.000  
C06  39973524.863   208152638.306        1072.713          31.000    39973516.672   160956783.588         828.256          29.000  
C07  40062570.622   208616333.649       -1823.216          31.000    40062558.193   161315312.724       -1409.133          30.000  
C09  41036734.005   213689044.542         885.640          26.000    41036728.178   165237896.300         687.237          32.000  
C39  39354659.730   204930051.630        1050.674          35.000                                                                  
C40  40575173.738   211285553.584       -2095.931          29.000                                                                  
R19  20931873.213   111971407.004        -534.914          43.000    20931868.043    87088872.854        -416.129          33.000  
R05  22471872.133   120125035.1013       -431.995          29.000    22471860.083    93430398.7022       -335.994          29.000  
G18  24157558.254   126948827.834        2533.114          34.000    24157555.865    98921141.641        1972.733          30.000  
G24  23308496.180   122486972.128        2469.181          38.000    23308495.855    95444405.544        1924.038          32.000  
S29  38691200.895   203323631.889        -417.561          36.000  
S28  39114884.274   205550104.553        -418.512          37.000  
C10  39660483.359   206522530.124       -1831.486          33.000    39660473.990   159696290.689       -1416.204          34.000  
C43  23810364.686   123986818.319       -1256.688          41.000                                                                  
> 2025 09 16 02 00 58.0060000  0 20                     
S37  38290538.032   201218134.525        -417.221          41.000  
E04  25260931.791   132747099.564        -516.692          40.000    25260930.199   101715298.320        -395.320          36.000  
J03  38541724.089   202538125.145         491.126          44.000    38541719.344   157821913.545         382.660          41.000  
J07  38290542.092   201218157.793        -417.146          38.000    38290532.960   156793330.755        -325.195          38.000  
E06  26058336.533   136937436.605         701.856          34.000    26058332.012   104926099.471         537.999          29.000  
G29  23955568.183   125887358.802       -2361.220          38.000    23955567.101    98094052.339       -1840.576          29.000  
C11  24331960.611   126702898.970       -2575.057          42.000    24331951.332    97974678.166       -1990.850          42.000  
C06  39973319.332   208151566.657        1071.829          37.000    39973310.909   160955954.897         828.558          37.000  
C07  40062922.352   208618149.8463      -1821.190          26.000    40062908.231   161316721.556       -1409.561          31.000  
C09  41036563.411   213688157.577         886.874          26.000    41036557.863   165237210.570         686.061          32.000  
C39  39354457.954   204929001.239        1050.514          41.000                                                                  
C40  40575576.091   211287649.289       -2095.707          27.000                                                                  
R19  20931973.278   111971942.490        -535.961          41.000    20931968.181    87089289.350        -416.884          33.000  
R05  22471946.860   120125467.1002       -431.866          28.000    22471941.560    93430734.7852       -336.598          30.000  
G18  24157073.850   126946279.8033       2532.982          32.000    24157073.934    98919168.203        1972.926          31.000  
G24  23308026.471   122484503.279        2468.901          43.000    23308026.001    95442481.717        1923.969          36.000  
S29  38691280.465   203324049.931        -418.033          36.000  
S28  39114963.755   205550522.960        -417.954          37.000  
C10  39660835.201   206524361.284       -1830.831          32.000    39660825.608   159697706.683       -1415.061          25.000  
C43  23810606.026   123988075.013       -1256.704          40.000                                                                  
> 2025 09 16 02 00 59.0060000  0 20                     
S37  38290617.392   201218551.379        -416.463          42.000  
E04  25261029.913   132747615.887        -515.967          40.000    25261028.465   101715693.947        -395.386          36.000  
J03  38541630.567   202537633.685         491.864          44.000    38541625.803   157821530.573         383.317          40.000  
J07  38290621.420   201218574.646        -416.289          38.000    38290612.347   156793655.561        -324.452          39.000  
E06  26058202.062   136936734.528         702.186          35.000    26058199.440   104925561.417         538.602          27.000  
G29  23956017.565   125889720.559       -2361.452          40.000    23956013.565    98095892.574       -1840.125          28.000  
C11  24332455.005   126705473.780       -2574.575          43.000    24332445.794    97976669.202       -1991.131          44.000  
C06  39973113.500   208150494.672        1072.283          38.000    39973105.206   160955125.989         829.061          40.000  
C07  40063273.169   208619971.9462      -1821.598          31.000    40063258.174   161318130.396       -1408.707          33.000  
C09  41036392.884   213687270.455         887.219          29.000    41036387.519   165236524.627         686.264          37.000  
C39  39354256.237   204927950.549        1051.146          42.000                                                                  
C40  40575978.672   211289744.537       -2094.934          30.000                                                                  
R19  20932073.516   111972478.501        -536.236          41.000    20932068.286    87089706.230        -416.845          34.000  
R05  22472023.719   120125898.5381       -430.685          28.000    22472020.853    93431070.2991       -336.793          31.000  
G18  24156592.983   126943747.1322       2532.893          33.000    24156592.027    98917194.717        1973.093          31.000  
G24  23307556.681   122482034.434        2469.304          43.000    23307556.098    95440557.944        1924.264          38.000  
S29  38691359.982   203324467.622        -417.467          36.000  
S28  39115043.307   205550941.068        -417.553          35.000  
C10  39661186.973   206526192.255       -1830.604          32.000    39661177.368   159699122.627       -1416.242          26.000  
C43  23810847.532   123989331.866       -1256.603          40.000                                                                  
> 2025 09 16 02 01 00.0060000  0 20                     
S37  38290696.703   201218967.782        -415.586          37.000  
E04  25261128.104   132748132.210        -517.288          36.000    25261126.769   101716089.569        -395.372          36.000  
J03  38541536.933   202537141.839         492.222          40.000    38541532.154   157821147.344         383.291          37.000  
J07  38290700.727   201218991.034        -415.026          34.000    38290691.704   156793980.050        -324.713          37.000  
E06  26058068.025   136936032.120         703.820          27.000    26058066.545   104925035.6731        536.590          31.000  
G29  23956466.962   125892082.169       -2362.402          35.000    23956462.569    98097732.913       -1839.691          27.000  
C11  24332949.458   126708048.564       -2574.370          37.000    24332940.286    97978660.181       -1991.249          43.000  
C06  39972907.608   208149422.037        1074.149          36.000    39972899.226   160954296.560         830.616          38.000  
C07  40063622.333   208621793.3422      -1820.494          27.000    40063607.989   161319538.803       -1407.445          30.000  
C09  41036222.195   213686382.721         888.673          32.000    41036217.010   165235838.200         687.005          39.000  
C39  39354054.476   204926899.416        1052.567          37.000                                                                  
C40  40576381.256   211291839.190       -2094.409          34.000                                                                  
R19  20932173.865   111973015.014        -537.358          36.000    20932168.452    87090123.519        -417.441          34.000  
R05  22472102.369                1       -431.219          28.000    22472102.422    93431406.102        -335.371          29.000  
G18  24156111.772   126941214.2422       2533.783          33.000    24156109.941    98915221.086        1972.934          30.000  
G24  23307086.852   122479565.436        2470.490          37.000    23307086.178    95438634.119        1923.905          35.000  
S29  38691439.430   203324884.992        -417.332          31.000  
S28  39115122.804   205551358.664        -416.771          32.000  
C10  39661538.447   206528022.599       -1829.717          26.000    39661529.013   159700537.933       -1414.314          30.000  
C43  23811088.986   123990588.889       -1258.851          29.000                                                                  
> 2025 09 16 02 01 01.0060000  0 19                     
S37  38290775.728   201219382.914        -415.177          38.000  
E04  25261226.019   132748647.475        -515.079          34.000    25261225.142   101716485.412        -400.166          26.000  
J03  38541443.134   202536648.790         492.933          38.000    38541438.220   157820762.875         386.199          32.000  
J07  38290779.765   201219406.164        -414.554          35.000    38290770.631   156794303.296        -320.754          29.000  
E06  26057935.699   136935329.255         704.899          26.000    26057935.044   104924497.464         534.893          25.000  
G29  23956916.209   125894443.275       -2361.326          37.000                                                                  
C11  24333443.836   126710622.390       -2574.724          40.000    24333434.496    97980650.278       -1985.379          32.000  
C06  39972701.501                        1075.126          30.000    39972693.126   160953466.440         832.072          32.000  
C07  40063972.169   208623615.7923      -1817.825          27.000    40063957.497   161320946.575       -1406.360          30.000  
C09  41036051.563   213685488.3843        888.055          27.000    41036046.458   165235151.097         686.756          35.000  
C39  39353852.224   204925846.973        1054.680          33.000                                                                  
C40  40576783.204   211293932.810       -2091.962          30.000                                                                  
R19  20932274.130   111973550.888        -535.327          35.000    20932268.866    87090540.719        -417.242          21.000  
R05  22472183.268   120126698.3753       -430.623          32.000    22472181.597                1       -338.682          27.000  
G18  24155628.397                        2534.928          25.000    24155627.660    98913246.749        1975.277          28.000  
G24  23306616.824   122477095.374        2471.482          37.000    23306616.183    95436709.447        1926.171          28.000  
S29  38691518.604   203325300.844        -415.799          35.000  
C10  39661889.682   206529851.856       -1825.807          26.000    39661880.401   159701952.469       -1412.606          29.000  
C43  23811330.062   123991845.061       -1255.164          35.000                                                                  
> 2025 09 16 02 01 02.0060000  0 19                     
S37  38290854.806   201219798.014        -415.351          36.000  
E04  25261324.506   132749163.166        -517.173          40.000    25261323.856   101716882.3821       -395.050          36.000  
J03  38541349.421   202536156.559         494.912          35.000    38541344.169   157820360.8241        384.319          35.000  
J07  38290858.951   201219821.385        -416.973          29.000    38290851.502   156794635.9131       -324.067          36.000  
E06  26057801.124   136934626.772         701.339          42.000    26057799.120   104923959.353         537.492          36.000  
G29  23957363.433   125896793.9243      -2363.410          39.000    23957361.806                       -1840.027          26.000  
C11  24333937.158   126713196.3073      -2576.068          37.000    24333928.979    97982641.111       -1991.606          38.000  
C06  39972496.005   208147275.2763       1071.624          33.000    39972488.070   160952645.5823        828.551          35.000  
C07  40064319.344                       -1823.070          27.000    40064307.231   161322362.5003      -1409.105          35.000  
C09  41035881.556   213684603.3672        887.126          32.000    41035875.911   165234467.2513        684.446          31.000  
C39  39353651.418   204924789.6793       1051.092          38.000                                                                  
C40  40577192.353   211296088.5953      -2094.574          33.000                                                                  
R19  20932374.450   111974087.843        -538.833          42.000    20932368.371    87090931.8143       -419.539          36.000  
R05  22472259.105   120127103.0473       -433.247          38.000    22472260.269    93432196.5103       -336.584          31.000  
G18  24155144.747   126936142.1773       2531.491          43.000    24155145.766    98911273.283        1973.569          33.000  
G24  23306147.115   122474629.2213       2467.617          41.000    23306146.101    95434771.3551       1922.998          33.000  
S29  38691597.900   203325716.969        -417.123          41.000  
C10  39662240.946   206531681.681       -1830.492          38.000    39662231.252                1      -1418.781          33.000  
C43  23811569.887   123993092.2213      -1257.150          37.000                                                                  
> 2025 09 16 02 01 03.0060000  0 19                     
S37  38290933.926   201220215.563        -418.156          39.000  
E04  25261423.427   132749681.613        -518.682          44.000    25261422.336   101717279.665        -397.443          43.000  
J03  38541256.143   202535666.359         489.826          44.000    38541252.300   157819978.787         381.979          42.000  
J07  38290938.205   201220238.882        -418.348          34.000    38290934.849   156794961.339        -326.025          41.000  
E06  26057666.383   136933926.785         699.461          45.000    26057664.736   104923422.953         536.400          40.000  
G29  23957814.736   125899158.0322      -2364.041          45.000    23957810.114    98103233.7801      -1842.290          36.000  
C11  24334432.295   126715772.8001      -2577.340          42.000    24334423.795    97984633.827       -1993.048          41.000  
C06  39972290.303   208146204.1182       1070.877          43.000    39972280.557   160951817.261         828.142          45.000  
C07  40064668.999   208627244.9713      -1823.039          34.000    40064658.434   161323771.913       -1409.817          38.000  
C09  41035711.923   213683719.8842        885.927          38.000    41035705.392   165233781.735         685.483          40.000  
C39  39353450.746   204923739.4981       1048.910          43.000                                                                  
C40  40577596.367   211298184.0121      -2096.100          40.000                                                                  
R19  20932475.519   111974628.169        -541.110          44.000    20932468.569    87091349.1442       -421.104          43.000  
R05  22472335.201   120127510.2402       -434.209          40.000    22472337.550    93432517.2912       -336.727          36.000  
G18  24154664.785   126933619.3642       2531.100          44.000    24154663.918    98909301.213        1972.128          38.000  
G24  23305677.702   122472162.5222       2466.147          45.000    23305679.035    95432849.318        1921.884          38.000  
S29  38691677.561   203326135.351        -418.128          44.000  
C10  39662592.715   206533513.435       -1832.132          38.000    39662582.827   159704785.1843      -1416.690          41.000  
C43  23811813.810   123994351.3631      -1259.840          47.000                                                                  
> 2025 09 16 02 01 04.0060000  0 19                     
S37  38291013.026   201220631.807        -414.399          40.000  
E04  25261522.197   132750199.025        -517.092          45.000    25261519.993   101717676.144        -396.444          44.000  
J03  38541162.630   202535174.739         491.616          44.000    38541160.216   157819595.709         384.106          41.000  
J07  38291017.189   201220655.095        -415.100          37.000    38291015.764   156795285.694        -323.685          42.000  
E06  26057532.664   136933225.752         701.101          44.000    26057532.556   104922885.803         537.090          41.000  
G29  23958261.042   125901521.0502      -2362.470          39.000    23958260.382    98105075.084       -1841.201          31.000  
C11  24334926.049   126718349.024       -2576.816          37.000    24334918.631    97986626.026       -1992.231          38.000  
C06  39972084.157   208145131.6922       1072.138          39.000    39972074.923   160950987.956         829.178          41.000  
C07  40065018.032   208629066.7042      -1822.146          30.000    40065005.798   161325180.594       -1409.739          29.000  
C09  41035540.135   213682832.2422        887.942          30.000    41035536.159   165233095.313         686.135          33.000  
C39  39353249.021   204922688.656        1050.839          43.000                                                                  
C40  40578005.992   211300278.657       -2094.183          36.000                                                                  
R19  20932576.288   111975168.078        -539.966          45.000    20932568.368    87091769.0472       -420.076          42.000  
R05  22472413.110   120127943.2842       -433.238          39.000    22472412.362    93432854.1452       -336.964          35.000  
G18  24154180.727   126931076.3143       2531.850          44.000    24154181.888    98907328.160        1973.129          37.000  
G24  23305208.078   122469694.9442       2467.770          45.000    23305206.005    95430926.527        1922.404          37.000  
S29  38691756.960   203326552.406        -416.754          42.000  
C10  39662944.299   206535344.101       -1831.556          32.000    39662934.463   159706200.6352      -1414.563          35.000  
C43  23812057.114   123995610.134       -1258.563          47.000                                                                  
> 2025 09 16 02 01 05.0060000  0 19                     
S37  38291092.418   201221047.544        -415.532          37.000  
E04  25261620.789   132750715.869        -516.661          44.000    25261618.673   101718072.194        -396.249          40.000  
J03  38541068.967   202534682.253         492.771          31.000    38541068.421   157819231.7831        384.170          26.000  
J07  38291096.652   201221070.837        -415.502          34.000    38291096.924   156795609.479        -323.099          30.000  
E06  26057399.343   136932524.232         701.440          46.000    26057399.129   104922348.182         537.536          39.000  
G29  23958713.545   125903883.7352      -2362.333          42.000    23958708.724    98106916.117       -1841.052          35.000  
C11  24335416.635                1      -2574.119          27.000    24335413.428    97988617.893       -1990.720          31.000  
C06  39971880.223   208144069.2593       1073.465          28.000    39971868.094   160950157.622         830.437          31.000  
C07  40065366.784   208630887.1252      -1819.465          30.000    40065356.106   161326586.6233      -1407.581          34.000  
C09  41035372.716                         888.839          25.000    41035365.143   165232410.7603        688.906          29.000  
C39  39353046.016                1       1050.857          25.000                                                                  
C40  40578426.644   211302372.437       -2093.342          23.000                                                                  
R19  20932677.111   111975707.882        -539.785          45.000    20932671.450    87092188.902        -419.361          37.000  
R05  22472490.431   120128375.931        -432.935          41.000    22472494.614    93433190.617        -336.486          38.000  
G18  24153701.018   126928554.7053       2532.423          44.000    24153699.783    98905354.677        1974.008          34.000  
G24  23304738.494   122467227.3342       2467.517          28.000    23304734.721                        1923.141          25.000  
S29  38691836.263   203326968.547        -415.759          41.000  
C10  39663295.716   206537173.535       -1828.828          35.000    39663286.339   159707615.2822      -1414.249          35.000  
C43  23812299.482   123996868.547       -1258.200          45.000                                                                  
> 2025 09 16 02 01 06.0060000  0 19                     
E04  25261719.025   132751230.774        -516.161          43.000    25261717.040   101718466.694        -395.158          41.000  
J03  38540974.721   202534187.346         493.777          44.000    38540974.419   157818846.250         385.133          42.000  
E06  26057264.823   136931821.173         703.825          39.000    26057265.804   104921809.547         539.214          40.000  
G29  23959164.967   125906260.7153      -2358.698          31.000    23959159.908    98108756.326       -1839.778          31.000  
C11  24335915.837   126723499.4473      -2575.222          37.000    24335907.857    97990608.603       -1990.256          41.000  
C06  39971673.503                        1074.628          28.000    39971666.525   160949337.4553        831.173          36.000  
C07  40065725.105   208632744.0533      -1818.696          30.000    40065708.688   161328005.5982      -1405.260          29.000  
C09  41035230.496                         890.427          25.000    41035193.761   165231720.5843        688.856          32.000  
C39  39352846.095   204920596.3933       1053.038          37.000                                                                  
C40  40578825.004   211304589.7003      -2091.565          34.000                                                                  
R19  20932777.747   111976246.189        -539.773          42.000    20932771.055    87092607.552        -419.696          36.000  
R04  22862109.270                       -2600.063          18.000                                                                  
R05  22472575.224   120128807.317        -431.119          43.000    22472575.762    93433526.057        -335.417          38.000  
G18  24153219.230   126926022.7632       2534.447          41.000    24153217.452    98903380.288        1974.631          39.000  
G24  23304264.813                        2467.670          32.000    23304274.223    95427106.7931       1924.727          37.000  
S29  38691915.119   203327385.3943       -414.636          37.000  
C10  39663647.711                1      -1824.286          18.000    39663637.542   159709032.5143      -1413.146          27.000  
C43  23812536.113   123998123.9613      -1258.135          39.000                                                                  
J07                                                                  38291174.683   156795931.164        -324.094          35.000  
> 2025 09 16 02 01 07.0060000  0 19                     
E04  25261817.766   132751748.114        -516.509          45.000    25261815.352   101718863.095        -395.718          42.000  
J03  38540881.125   202533694.838         492.841          46.000    38540881.402   157818462.502         383.926          43.000  
J07  38291246.329   201221857.0383       -414.229          36.000    38291251.912   156796254.564        -322.981          36.000  
E06  26057131.278   136931120.208         701.884          43.000    26057131.062   104921272.379         538.118          41.000  
G29  23959616.081   125908624.0962      -2362.342          41.000    23959610.065    98110597.813       -1840.399          34.000  
C11  24336412.902   126726075.6832      -2575.590          39.000    24336402.712    97992600.828       -1991.953          41.000  
C06  39971469.413                        1071.335          25.000    39971457.366   160948507.4452        829.695          36.000  
C07  40066081.270                       -1824.260          17.000    40066054.541   161329412.9352      -1406.238          31.000  
C09  41035056.113                         890.215          23.000    41035026.597   165231033.4512        686.655          32.000  
C39  39352642.148   204919544.6022       1052.389          40.000                                                                  
C40  40579209.167   211306683.2262      -2092.456          36.000                                                                  
R19  20932878.829   111976787.634        -540.953          45.000    20932872.058    87093028.703        -421.124          40.000  
R04  22862604.340                       -2600.063          16.000                                                                  
R05  22472656.026   120129240.509        -432.399          46.000    22472655.805    93433862.961        -336.227          40.000  
G18  24152736.771   126923487.5402       2532.613          42.000    24152735.444    98901407.121        1973.560          39.000  
G24  23303796.449   122462270.4623       2468.186          41.000    23303800.290    95425184.059        1922.681          36.000  
S29  38691994.367   203327801.4362       -414.999          44.000  
C10  39663999.442                       -1828.926          30.000    39663988.346   159710445.0022      -1413.579          32.000  
C43  23812781.152   123999400.2502      -1258.528          42.000                                                                  
> 2025 09 16 02 01 08.0060000  0 20                     
E04  25261916.427   132752266.527        -523.901          39.000    25261913.610   101719260.375        -400.846          38.000  
J03  38540787.385   202533202.520         485.804          42.000    38540785.848   157818079.079         377.856          34.000  
J07  38291330.906   201222272.4762       -421.133          40.000    38291329.427   156796578.224        -326.936          39.000  
E06  26056998.019   136930420.109         696.185          43.000    26056999.038   104920736.054         532.168          38.000  
G29  23960064.998   125910988.2452      -2365.676          42.000    23960061.864    98112440.226       -1844.584          34.000  
C11  24336905.275   126728652.4492      -2579.686          41.000    24336897.558    97994593.192       -1992.216          43.000  
C06  39971261.308   208140846.3393       1069.753          37.000    39971249.991   160947677.1032        826.427          37.000  
C07  40066418.083   208636352.2503      -1823.767          30.000    40066406.242   161330820.5482      -1408.887          32.000  
C09  41034869.859                         886.787          34.000    41034853.792                         687.096          22.000  
C39  39352441.620   204918492.9802       1047.875          43.000                                                                  
C40  40579599.695   211308776.5272      -2096.356          38.000                                                                  
R19  20932980.379   111977330.622        -548.760          42.000    20932973.943    87093451.123        -428.522          36.000  
R04  22863093.333                       -2600.063          15.000                                                                  
R05  22472737.432   120129674.996        -436.704          45.000    22472736.944    93434200.799        -337.934          39.000  
G18  24152254.826   126920956.5122       2530.537          41.000    24152253.871    98899435.095        1967.933          37.000  
S28  39115755.892   205554684.2703       -420.427          40.000  
G24  23303327.508   122459803.3092       2462.648          44.000    23303331.706    95423247.5271       1917.922          36.000  
S29  38692073.718   203328218.0952       -421.885          39.000  
C10  39664345.854   206542656.9863      -1836.594          28.000    39664339.951   159711859.7682      -1414.176          34.000  
C43  23813022.000   124000660.6122      -1263.542          43.000                                                                  
> 2025 09 16 02 01 09.0060000  0 20                     
E04  25262014.950   132752784.451        -519.966          42.000    25262013.027   101719658.1811       -399.068          39.000  
J03  38540693.579   202532710.287         491.206          41.000    38540691.297   157817695.599         379.810          38.000  
J07  38291409.753   201222687.7532       -415.719          37.000    38291408.351   156796901.959        -325.854          38.000  
E06  26056865.118   136929719.564         698.999          36.000    26056867.701                         535.870          35.000  
G29  23960516.262   125913362.2723      -2366.536          33.000    23960511.817                       -1843.988          30.000  
C11  24337400.549                       -2578.439          39.000    24337392.465    97996593.8153      -1994.383          39.000  
C06  39971052.252                        1071.186          26.000    39971044.739                         822.174          26.000  
C07  40066767.160                       -1823.117          30.000    40066755.974                       -1405.199          32.000  
C09  41034697.250                         886.164          24.000    41034684.246                         684.396          34.000  
C39  39352238.245   204917430.3683       1050.682          36.000                                                                  
C40  40579998.695   211310870.8332      -2094.629          36.000                                                                  
R19  20933081.789   111977873.625        -543.180          39.000    20933075.672    87093873.486        -423.199          33.000  
R04  22863578.984                       -2600.063          16.000                                                                  
R05  22472819.298   120130108.728        -435.153          43.000    22472818.528    93434517.2923       -340.053          38.000  
G18  24151773.033   126918424.5912       2531.082          39.000    24151772.187                        1970.990          40.000  
S28  39115835.731   205555104.1383       -418.036          39.000  
G24  23302858.035   122457336.8922       2466.500          37.000    23302859.314                        1920.361          33.000  
S29  38692152.829   203328633.8102       -416.875          37.000  
C10  39664703.316   206544518.3733      -1830.969          36.000    39664695.046   159713290.3263      -1416.181          39.000  
C43  23813264.897   124001920.1941      -1261.412          39.000                                                                  
> 2025 09 16 02 01 10.0060000  0 20                     
E04  25262113.904   132753304.233        -520.442          43.000    25262111.431   101720056.537        -399.698          42.000  
J03  38540600.069   202532219.674         485.894          37.000    38540599.933   157817313.001         381.805          40.000  
J07  38291491.589   201223104.6132       -420.104          37.000    38291487.328   156797226.575        -324.536          37.000  
E06  26056732.026   136929021.032         696.020          39.000    26056732.339   104919663.0101        532.784          39.000  
G29  23960962.841                       -2369.473          31.000    23960963.631    98116139.6121      -1844.912          34.000  
C11  24337896.709   126733814.5973      -2580.081          39.000    24337887.861    97998588.2592      -1997.623          34.000  
C06  39970848.285   208138695.1933       1078.175          31.000    39970835.826   160945992.1253        831.279          32.000  
C07  40067116.263   208639988.1693      -1821.732          35.000    40067105.497   161333630.1233      -1408.613          34.000  
C09  41034514.510   213677484.3963        888.829          31.000    41034510.043   165228967.3603        687.264          34.000  
C39  39352038.045   204916380.5042       1049.207          38.000                                                                  
C40  40580402.261   211312965.8202      -2095.087          37.000                                                                  
R19  20933183.809   111978419.534        -549.073          40.000    20933177.461    87094298.5433       -427.936          36.000  
R04  22864065.423                       -2600.063          16.000                                                                  
R05  22472901.701   120130538.2363       -436.053          42.000    22472900.132    93434855.9442       -338.603          43.000  
G18  24151291.589   126915894.3692       2526.964          35.000    24151290.620    98895497.2051       1973.501          37.000  
S28  39115915.400   205555522.0562       -418.216          40.000  
G24  23302389.931   122454872.0812       2464.221          40.000    23302385.978    95419391.9471       1921.624          32.000  
S29  38692232.350   203329051.5382       -420.795          40.000  
C10  39665052.339   206546336.3333      -1831.439          33.000    39665044.026   159714706.0032      -1415.716          39.000  
C43  23813506.704   124003182.565       -1264.860          41.000                                                                  
> 2025 09 16 02 01 11.0060000  0 19                     
E04  25262212.859                        -512.817          41.000    25262210.367   101720451.680        -394.429          35.000  
J03  38540505.732   202531724.384         497.580          40.000    38540504.810   157816927.104         389.450          34.000  
J07  38291569.835   201223516.6602       -409.382          37.000    38291564.574   156797555.7251       -316.888          31.000  
E06  26056596.335                         709.505          29.000    26056600.130   104919130.4771        537.971          38.000  
G29  23961415.165                       -2362.555          27.000    23961413.771    98117983.5931      -1838.472          31.000  
C11  24338389.850   126736381.9843      -2573.599          35.000    24338380.821    98000573.8073      -1988.117          36.000  
C06  39970641.994                        1073.595          25.000    39970627.523                         834.736          31.000  
C07  40067465.905                       -1817.043          31.000    40067456.853                       -1400.533          30.000  
C09  41034357.091   213676664.7032        895.755          27.000    41034341.369   165228277.6872        691.636          34.000  
C39  39351836.668   204915339.5983       1055.923          35.000                                                                  
C40  40580808.159   211315056.8632      -2088.513          32.000                                                                  
R19  20933285.100   111978961.486        -541.051          39.000    20933278.673    87094719.8882       -416.624          33.000  
R05  22472984.381   120130980.6522       -432.449          45.000    22472980.941    93435191.5422       -332.175          34.000  
G18  24150809.410   126913360.1952       2535.459          39.000    24150808.253    98893522.447        1978.599          32.000  
S28  39115993.840   205555934.8513       -410.297          37.000  
G24  23301921.773   122452424.4793       2470.261          34.000    23301914.318                        1926.741          27.000  
S29  38692311.064   203329464.3122       -409.278          36.000  
C10  39665402.764   206548163.6172      -1823.502          30.000    39665400.141   159716129.2363      -1410.149          31.000  
C43  23813749.025                1      -1256.464          34.000                                                                  
> 2025 09 16 02 01 12.0060000  0 19                     
E04  25262308.723   132754338.1091       -520.287          38.000    25262307.709   101720845.672        -398.447          39.000  
J03  38540411.285   202531227.681         491.547          42.000    38540410.883   157816540.137         383.378          39.000  
J07  38291647.274   201223927.2672       -415.231          37.000    38291640.729   156797875.729        -323.250          36.000  
E06  26056478.590   136927718.8221        698.587          41.000    26056464.875   104918590.686         535.640          41.000  
G29  23961865.431   125920452.3333      -2365.611          39.000    23961861.459    98119822.900       -1842.893          37.000  
C11  24338884.827   126738955.6582      -2579.039          40.000    24338875.754    98002563.9272      -1994.671          38.000  
C06  39970433.348   208136534.4553       1072.534          37.000    39970423.154   160944330.9813        829.691          34.000  
C07  40067812.244   208643612.1033      -1819.670          25.000    40067805.308   161336448.6223      -1407.157          37.000  
C09  41034179.293   213675738.8492        887.991          35.000    41034168.148   165227586.8032        687.517          37.000  
C39  39351633.202   204914283.8502       1050.835          38.000                                                                  
C40  40581206.288   211316989.6533      -2094.458          36.000                                                                  
R19  20933386.133   111979502.389        -546.980          40.000    20933378.810    87095140.6882       -425.064          39.000  
R05  22473063.127   120131410.4262       -435.509          34.000    22473061.440    93435525.9192       -337.739          38.000  
G18  24150326.893   126910824.1322       2531.753          36.000    24150325.693    98891546.489        1973.523          36.000  
S28  39116072.286   205556346.5232       -417.278          39.000  
G24  23301449.239   122449954.2922       2464.348          42.000    23301442.822    95415512.2481       1920.557          32.000  
S29  38692389.430   203329875.3123       -416.763          37.000  
C10  39665752.121   206549988.1162      -1828.458          30.000    39665744.730   159717540.2732      -1415.045          36.000  
C43  23813991.408   124005702.2003      -1262.901          40.000                                                                  
> 2025 09 16 02 01 13.0060000  0 20                     
S37  38291722.728   201224360.7713       -412.964          39.000  
E04  25262409.535   132754854.364        -516.805          41.000    25262405.362   101721241.160        -395.759          42.000  
J03  38540317.102   202530732.670         494.137          42.000    38540316.680   157816154.390         384.948          40.000  
J07  38291725.308   201224339.0281       -412.855          35.000    38291718.347   156798196.884        -321.375          35.000  
E06  26056332.416   136927016.498         702.033          42.000    26056331.153   104918052.560         537.737          44.000  
G29  23962310.632   125922814.595       -2363.239          42.000    23962313.521    98121663.591       -1841.183          41.000  
C11  24339378.877   126741531.4112      -2576.866          40.000    24339366.753    98004555.6632      -1992.706          35.000  
C06  39970225.986   208135458.1702       1075.611          36.000    39970216.485   160943498.6692        831.840          35.000  
C07  40068164.286   208645445.3302      -1817.324          32.000    40068152.402   161337853.6202      -1404.933          36.000  
C09  41033999.820   213674846.9492        891.081          35.000    41033997.211   165226897.0902        689.055          34.000  
C39  39351431.275   204913229.7142       1053.545          40.000                                                                  
C40  40581608.270   211319080.0402      -2090.942          37.000                                                                  
R19  20933487.824   111980046.035        -545.003          41.000    20933480.953    87095563.0171       -423.239          41.000  
R05  22473144.675   120131842.150        -432.047          41.000    22473142.328    93435861.702        -336.597          37.000  
G18  24149844.748   126908289.4871       2534.431          44.000    24149843.453    98889571.869        1974.436          38.000  
S28  39116150.930   205556759.8092       -414.365          38.000  
G24  23300982.904   122447485.9972       2467.513          43.000    23300974.536    95413588.901        1922.535          35.000  
S29  38692467.798   203330288.6393       -413.052          45.000  
C10  39666101.965   206551814.5882      -1826.564          33.000    39666096.017   159718952.4632      -1412.519          39.000  
C43  23814233.289   124006961.4182      -1259.895          43.000                                                                  
> 2025 09 16 02 01 14.0060000  0 20                     
S37  38291801.058   201224772.5912       -411.835          38.000  
E04  25262506.921   132755370.819        -516.525          42.000    25262503.492   101721636.799        -395.485          36.000  
J03  38540222.849   202530237.401         496.419          30.000    38540222.384   157815768.371         385.671          35.000  
J07  38291803.418   201224750.897        -412.975          34.000    38291798.140   156798517.785        -321.968          35.000  
E06  26056198.797   136926313.770         702.099          43.000    26056197.444   104917514.068         538.749          41.000  
G29  23962758.924   125925176.069       -2362.366          43.000    23962758.192    98123503.787       -1841.326          33.000  
C11  24339873.864   126744106.6572      -2575.818          35.000    24339864.855                       -1991.791          29.000  
C06  39970018.933   208134380.3302       1076.346          26.000    39970010.961   160942670.3973        834.568          30.000  
C07  40068513.424   208647260.9262      -1816.913          32.000    40068498.590   161339257.4362      -1404.510          37.000  
C09  41033827.845                         920.617          26.000    41033832.350   165226238.4503        691.036          36.000  
C39  39351227.939   204912174.6392       1054.284          26.000                                                                  
C40  40582009.434   211321168.7862      -2090.540          39.000                                                                  
R19  20933589.569   111980590.483        -544.845          43.000    20933585.047    87095986.409        -424.160          36.000  
R05  22473227.228   120132273.936        -431.573          41.000    22473223.139    93436197.436        -336.457          39.000  
G18  24149362.641   126905755.416        2534.184          43.000    24149361.240    98887597.206        1974.528          34.000  
S28  39116229.464   205557173.2183       -413.497          42.000  
G24  23300510.695   122445016.7111       2466.236          27.000    23300509.643    95411665.205        1923.266          28.000  
S29  38692546.242   203330700.640        -412.730          41.000  
C10  39666453.666   206553639.5752      -1826.167          37.000    39666444.629   159720363.5652      -1410.682          39.000  
C43  23814473.302   124008220.3932      -1259.325          43.000                                                                  
> 2025 09 16 02 01 15.0060000  0 20                     
S37  38291877.926   201225176.6053       -404.309          32.000  
E04  25262602.511   132755885.202        -511.908          41.000    25262602.115   101722030.914        -393.051          43.000  
J03  38540128.110   202529739.555         499.321          36.000    38540128.039                         389.905          29.000  
E06  26056059.844   136925609.472         705.690          43.000    26056063.007   104916974.375         540.982          39.000  
G29  23963209.766   125927536.291       -2360.175          44.000    23963207.106    98125342.787       -1838.806          36.000  
C11  24340368.230   126746679.7521      -2571.899          39.000    24340356.883    98008530.3813      -1988.219          36.000  
C06  39969812.265   208133300.3633       1079.874          25.000    39969804.191   160941838.3942        835.309          36.000  
C07  40068861.685   208649074.2351      -1812.577          33.000    40068851.527   161340659.913       -1401.512          37.000  
C09  41033663.355   213673052.1523        896.564          31.000    41033655.146   165225525.0502        693.374          29.000  
C39  39351028.331                        1056.787          25.000                                                                  
C40  40582410.013   211323257.9183      -2087.504          27.000                                                                  
R19  20933691.000   111981133.051        -540.622          40.000    20933686.917    87096408.502        -421.358          39.000  
R05  22473306.627   120132704.294        -428.458          43.000    22473303.797    93436532.160        -333.882          40.000  
G18  24148880.113   126903219.841        2537.540          44.000    24148878.611    98885620.3861       1977.152          38.000  
S28  39116307.472   205557583.7512       -409.728          45.000  
S29  38692624.339   203331110.733        -409.064          41.000  
C10  39666804.398   206555462.950       -1822.373          37.000    39666797.286   159721772.9471      -1408.600          41.000  
C43  23814714.095   124009477.4801      -1256.506          43.000                                                                  
G24                                                                  23300038.889    95409739.749        1927.245          28.000  
J07                                                                  38291876.466   156798832.6101       -318.599          32.000  
> 2025 09 16 02 01 16.0060000  0 20                     
S37  38291955.275   201225582.5812       -413.733          40.000  
E04  25262701.061   132756400.520        -518.800          42.000    25262699.192   101722425.810        -396.525          41.000  
J03  38540033.583   202529242.711         492.569          43.000    38540031.157   157814994.5671        380.958          32.000  
J07  38291954.903   201225580.3773       -414.717          36.000    38291958.030   156799152.372        -323.025          40.000  
E06  26055931.736   136924906.494         699.025          44.000    26055929.114   104916435.795         535.383          44.000  
G29  23963663.517   125929898.203       -2365.051          45.000    23963657.007    98127183.255       -1842.321          36.000  
C11  24340864.613   126749255.061       -2579.733          44.000    24340852.970    98010521.8872      -1995.135          43.000  
C06  39969603.866   208132222.6992       1075.112          27.000    39969596.475   160941005.2232        830.590          35.000  
C07  40069206.928                1      -1825.666          26.000    40069201.689   161342070.3593      -1404.102          30.000  
C09  41033491.132                         894.948          26.000    41033482.650                         691.364          27.000  
C39  39350822.709   204910059.4763       1050.887          39.000                                                                  
C40  40582810.942                       -2097.746          28.000                                                                  
R19  20933792.741   111981677.610        -549.217          42.000    20933788.690    87096831.936        -426.635          39.000  
R05  22473387.351   120133135.146        -433.476          42.000    22473384.448    93436867.267        -337.043          37.000  
G18  24148397.642   126900684.203        2532.640          43.000    24148396.004    98883644.594        1972.907          40.000  
S28  39116385.704   205557995.4342       -415.306          39.000  
G24  23299570.143   122440067.2423       2463.828          42.000    23299570.323    95407816.184        1919.819          36.000  
S29  38692702.595   203331521.847        -415.145          44.000  
C10  39667155.298   206557288.016       -1828.761          41.000    39667147.851   159723184.264       -1413.048          34.000  
C43  23814957.104   124010736.419       -1262.744          46.000                                                                  
> 2025 09 16 02 01 17.0060000  0 20                     
S37  38292033.971   201225995.4952       -411.591          43.000  
E04  25262798.740   132756918.703        -517.732          45.000    25262798.172   101722822.791        -395.683          41.000  
J03  38539939.538   202528749.017         494.010          44.000    38539939.174   157814609.692         385.652          38.000  
J07  38292039.571   201226025.2713       -411.482          39.000    38292036.481   156799474.162        -321.484          41.000  
E06  26055795.625   136924205.711         701.866          45.000    26055795.857   104915898.700         538.405          38.000  
G29  23964109.773   125932261.912       -2361.211          44.000    23964107.421    98129025.198       -1840.047          35.000  
C11  24341357.114   126751832.740       -2575.820          42.000    24341347.801    98012515.0752      -1992.423          45.000  
C06  39969399.603   208131146.7882       1077.003          41.000    39969389.659   160940173.1282        833.721          42.000  
C07  40069557.716   208652701.5723      -1816.051          37.000    40069549.716   161343475.4722      -1403.076          40.000  
C09  41033316.287   213671245.5983        893.784          42.000    41033308.091   165224128.1173        690.314          35.000  
C39  39350621.024   204909006.0772       1054.194          45.000                                                                  
C40  40583211.139   211327429.9563      -2088.348          41.000                                                                  
R19  20933895.206   111982225.379        -546.933          43.000    20933890.929    87097257.973        -425.699          40.000  
R05  22473468.495   120133568.863        -432.667          46.000    22473465.706    93437204.474        -335.533          32.000  
G18  24147915.730   126898151.821        2533.092          41.000    24147914.052    98881671.357        1974.679          36.000  
S28  39116464.277   205558408.7262       -411.708          48.000  
G24  23299102.310   122437608.8753       2467.372          45.000    23299100.281    95405894.322        1923.077          40.000  
S29  38692781.279   203331934.840        -411.381          44.000  
C10  39667505.163   206559114.374       -1824.041          41.000    39667496.981   159724596.489       -1411.379          40.000  
C43  23815199.949   124011997.822       -1260.389          44.000                                                                  
> 2025 09 16 02 01 18.0060000  0 20                     
S37  38292111.955   201226405.9722       -409.955          40.000  
E04  25262898.688   132757435.113        -516.208          43.000    25262896.816   101723218.474        -395.788          44.000  
J03  38539845.145   202528253.337         495.519          44.000    38539844.936   157814223.365         386.444          40.000  
J07  38292116.813   201226431.7412       -409.460          35.000    38292114.705   156799793.907        -320.227          37.000  
E06  26055660.398   136923501.940         704.399          44.000    26055662.211   104915359.515         539.755          37.000  
G29  23964559.106                       -2363.184          38.000    23964556.381    98130864.486       -1838.486          35.000  
C11  24341851.507   126754407.807       -2574.709          42.000    24341842.500    98014506.2332      -1991.130          40.000  
C06  39969191.997   208130067.5882       1078.765          42.000    39969182.336   160939338.6932        834.092          43.000  
C07  40069906.112   208654514.7222      -1812.380          39.000    40069895.704   161344877.6252      -1400.542          36.000  
C09  41033141.838   213670337.1073        895.162          38.000    41033139.203   165223447.6342        692.869          35.000  
C39  39350416.346   204907949.9922       1055.864          44.000                                                                  
C40  40583611.503   211329516.6832      -2086.743          44.000                                                                  
R19  20933997.387   111982771.927        -546.391          44.000    20933993.018    87097683.050        -424.925          41.000  
R05  22473549.204   120134000.328        -430.246          39.000    22473546.693    93437540.194        -334.762          37.000  
G18  24147433.711   126895618.371        2535.345          42.000    24147431.793    98879697.089        1975.712          38.000  
S28  39116542.217   205558818.4372       -409.783          43.000  
G24  23298630.393   122435128.9882       2469.060          44.000    23298631.338    95403970.549        1923.186          38.000  
S29  38692859.217   203332344.384        -408.013          45.000  
C10  39667855.109   206560937.001       -1821.760          37.000    39667846.814   159726005.846       -1410.418          39.000  
C43  23815440.486   124013256.908       -1258.306          45.000                                                                  
> 2025 09 16 02 01 19.0060000  0 21                     
S37  38292190.073   201226816.6362       -412.732          40.000  
E04  25262996.809   132757950.803        -517.239          44.000    25262994.920   101723613.623        -396.001          43.000  
J03  38539750.865   202527758.003         492.828          39.000    38539748.091   157813837.289         384.304          41.000  
J07  38292191.449   201226823.3902       -412.816          35.000    38292192.758   156800113.976        -323.341          41.000  
E06  26055527.099   136922797.123         704.308          43.000    26055528.288   104914819.467         537.859          40.000  
G29  23965008.003   125936966.5943      -2361.417          46.000    23965003.693    98132683.7641      -1838.109          26.000  
C11  24342346.193   126756982.876       -2578.461          44.000    24342337.032    98016497.4962      -1993.453          44.000  
C06  39968984.418   208128988.1592       1076.258          40.000    39968975.505   160938504.0002        831.859          38.000  
C07  40070254.526   208656327.5162      -1815.066          37.000    40070245.596   161346279.0832      -1403.932          41.000  
C09  41032969.516   213669440.9292        894.442          39.000    41032965.156   165222746.6212        696.510          29.000  
C39  39350214.834   204906893.8522       1053.904          44.000                                                                  
C40  40584011.836   211331602.8352      -2089.417          43.000                                                                  
R19  20934099.525   111983318.589        -548.568          43.000    20934095.051    87098108.259        -427.050          42.000  
R05  22473629.767   120134430.164        -429.456          44.000    22473627.033    93437874.426        -334.697          32.000  
G18  24146949.914   126893077.9133       2533.310          42.000    24146949.190    98877721.766        1977.371          26.000  
S28  39116619.992   205559226.7322       -408.860          42.000  
G24  23298161.686   122432665.3572       2466.532          47.000    23298161.381    95402046.928        1922.522          40.000  
S29  38692936.947   203332752.749        -411.458          46.000  
E09  28003592.322   147159870.747        1531.222          44.000                                                                  
C10  39668204.746   206562758.288       -1824.585          38.000    39668196.581   159727414.103       -1408.118          39.000  
C43  23815682.046   124014515.240       -1259.558          42.000                                                                  
> 2025 09 16 02 01 20.0060000  0 21                     
S37  38292268.250   201227227.5932       -409.460          41.000  
E04  25263094.555   132758465.961        -514.724          45.000    25263092.845   101724008.448        -394.108          44.000  
J03  38539656.615   202527262.896         495.377          44.000    38539654.844   157813451.593         386.118          42.000  
J07  38292271.297   201227234.3492       -409.692          37.000    38292270.615   156800434.254        -320.265          42.000  
E06  26055393.251   136922092.240         705.370          45.000    26055394.222   104914279.424         538.647          39.000  
G29  23965456.914   125939326.0902      -2359.888          44.000    23965455.451    98134522.321       -1835.797          35.000  
C11  24342841.044   126759558.785       -2576.387          42.000    24342832.582    98018489.3232      -1991.399          45.000  
C06  39968777.527   208127909.6792       1078.320          40.000    39968768.049   160937670.1112        832.672          40.000  
C07  40070601.794   208658140.4302      -1812.950          35.000    40070592.313   161347680.9952      -1402.120          41.000  
C09  41032799.349   213668546.1262        895.321          38.000    41032794.313   165222059.3253        690.749          39.000  
C39  39350010.724   204905838.7572       1056.348          37.000                                                                  
C40  40584413.296   211333689.8712      -2086.053          43.000                                                                  
R19  20934201.760   111983865.443        -546.627          45.000    20934197.163    87098533.589        -425.540          39.000  
R05  22473710.065   120134858.889        -427.286          46.000    22473707.413    93438208.029        -333.611          39.000  
G18  24146469.640   126890540.9672       2538.146          44.000    24146466.570    98875745.238        1977.674          39.000  
S28  39116697.555   205559634.2163       -406.836          45.000  
G24  23297691.681   122430198.0192       2466.958          43.000    23297691.796    95400124.330        1923.309          38.000  
S29  38693014.726   203333160.830        -407.557          46.000  
E09  28003299.897   147158336.871        1534.085          43.000                                                                  
C10  39668554.536   206564580.018       -1822.059          42.000    39668546.559                1      -1412.861          26.000  
C43  23815923.599   124015773.716       -1257.864          44.000                                                                  
> 2025 09 16 02 01 21.0060000  0 21                     
S37  38292346.563   201227639.5892       -413.501          41.000  
E04  25263192.477   132758980.986        -514.877          44.000    25263191.220   101724403.007        -394.577          45.000  
J03  38539562.668   202526768.644         493.746          43.000    38539560.994   157813066.443         383.876          38.000  
J07  38292349.628   201227646.3282       -413.291          36.000    38292348.710   156800755.314        -322.175          42.000  
E06  26055258.945   136921387.750         703.860          46.000    26055259.961   104913739.500         540.136          41.000  
G29  23965906.092   125941686.5422      -2360.077          44.000    23965902.439    98136361.859       -1841.914          40.000  
C11  24343336.077   126762136.222       -2578.551          44.000    24343328.004    98020482.414       -1994.661          45.000  
C06  39968570.757   208126832.6361       1074.490          38.000    39968561.246   160936837.1511        831.337          40.000  
C07  40070951.357   208659955.047       -1815.499          39.000    40070940.163   161349083.5651      -1403.582          45.000  
C09  41032628.210   213667652.6281        891.868          40.000    41032621.518   165221368.8042        688.659          35.000  
C39  39349808.871   204904784.7281       1052.656          41.000                                                                  
C40  40584814.237   211335778.2551      -2090.094          45.000                                                                  
R19  20934304.187   111984413.036        -548.563          48.000    20934299.499    87098959.478        -426.267          41.000  
R05  22473790.170   120135286.781        -427.879          47.000    22473787.550    93438540.827        -334.465          38.000  
G18  24145985.206   126888002.8532       2538.875          41.000    24145983.410    98873767.309        1977.717          40.000  
S28  39116775.128   205560042.5242       -409.532          43.000  
G24  23297222.418   122427732.4222       2463.103          43.000    23297222.582    95398203.058        1919.580          39.000  
S29  38693092.394   203333569.447        -409.530          44.000  
E09  28003006.967   147156804.098        1530.698          43.000                                                                  
C10  39668904.654   206566402.937       -1825.438          38.000    39668897.775   159730212.4343      -1410.817          43.000  
C43  23816165.203   124017032.848       -1259.758          46.000                                                                  
> 2025 09 16 02 01 22.0060000  0 21                     
S37  38292425.182   201228052.3363       -415.326          41.000  
E04  25263290.789   132759496.901        -516.875          44.000    25263289.532   101724798.372        -396.667          45.000  
J03  38539468.851   202526275.497         490.538          41.000    38539467.424   157812682.202         382.709          37.000  
J07  38292429.687   201228059.6332       -415.837          37.000    38292427.224   156801077.333        -324.630          38.000  
E06  26055125.219   136920684.849         702.334          41.000    26055126.228   104913201.083         537.764          42.000  
G29  23966355.503   125944049.1452      -2363.644          46.000    23966354.197    98138202.632       -1840.977          39.000  
C11  24343831.438   126764715.782       -2580.633          43.000    24343823.312    98022477.004       -1995.126          43.000  
C06  39968364.384   208125758.193        1073.457          32.000    39968355.010   160936006.261         830.632          38.000  
C07  40071300.694   208661771.537       -1816.522          40.000    40071290.307   161350488.076       -1405.187          39.000  
C09  41032456.045                1        890.933          34.000    41032448.794   165220667.4023        690.007          36.000  
C39  39349607.760   204903733.016        1051.673          42.000                                                                  
C40  40585215.652   211337869.218       -2090.741          43.000                                                                  
R19  20934406.821   111984962.261        -550.545          44.000    20934402.079    87099386.735        -428.530          39.000  
R05  22473870.436   120135715.179        -428.121          45.000    22473867.631    93438873.986        -334.906          35.000  
G18  24145503.218   126885464.4952       2536.269          37.000    24145500.327    98871789.335        1977.481          39.000  
S28  39116853.061   205560452.352        -411.126          42.000  
G24  23296754.769   122425269.0142       2461.074          40.000    23296753.803    95396283.453        1918.076          34.000  
S29  38693170.411   203333979.526        -410.386          42.000  
E09  28002716.559   147155273.249        1530.451          44.000                                                                  
C10  39669255.062   206568227.739       -1824.252          43.000    39669246.322   159731623.4302      -1411.795          40.000  
C43  23816407.326   124018293.570       -1261.870          45.000                                                                  
> 2025 09 16 02 01 23.0060000  0 21                     
S37  38292503.837   201228465.4652       -412.567          41.000  
E04  25263388.921   132760012.506        -515.708          45.000    25263387.392   101725193.436        -393.849          44.000  
J03  38539375.004   202525782.064         495.221          43.000    38539373.329   157812297.648         386.802          36.000  
J07  38292507.765   201228472.7092       -411.893          37.000    38292505.654   156801399.177        -320.306          39.000  
E06  26054991.454   136919982.034         703.704          45.000    26054992.380   104912662.456         539.607          44.000  
G29  23966805.023   125946411.9112      -2362.502          45.000    23966802.227    98140043.655       -1839.828          37.000  
C11  24344326.940   126767295.765       -2579.033          41.000    24344318.862    98024472.022       -1994.608          43.000  
C06  39968159.241                1       1074.798          29.000    39968151.553   160935183.3923        829.020          36.000  
C07  40071649.630   208663588.287       -1816.700          38.000    40071636.615   161351874.9253      -1403.123          41.000  
C09  41032284.770                         888.849          28.000    41032279.434   165219978.3792        688.960          32.000  
C39  39349405.940   204902681.604        1051.349          38.000                                                                  
C40  40585616.887   211339960.484       -2090.613          38.000                                                                  
R19  20934509.706   111985511.939        -549.708          45.000    20934504.768    87099814.225        -427.556          41.000  
R05  22473950.609   120136143.161        -429.359          47.000    22473947.914    93439207.159        -333.969          39.000  
G18  24145019.263   126882925.2142       2539.630          42.000    24145017.177    98869810.861        1978.696          37.000  
S28  39116930.927   205560861.750        -408.221          46.000  
G24  23296286.247   122422806.0222       2463.055          38.000    23296285.114    95394364.241        1920.533          37.000  
S29  38693248.423   203334389.312        -408.720          46.000  
E09  28002425.405   147153742.672        1531.508          45.000                                                                  
C10  39669605.415   206570052.647       -1824.051          43.000    39669597.337   159733034.6032      -1410.695          42.000  
C43  23816649.272   124019554.511       -1260.433          47.000                                                                  
> 2025 09 16 02 01 24.0060000  0 21                     
S37  38292582.701   201228880.246        -411.377          39.000  
E04  25263487.192   132760529.720        -513.860          40.000    25263485.620   101725589.881        -395.667          45.000  
J03  38539281.476   202525290.588         492.255          42.000    38539279.767   157811914.828         383.722          39.000  
J07  38292586.627   201228887.5102       -411.631          35.000    38292584.525   156801722.470        -320.510          39.000  
E06  26054858.151   136919280.621         703.939          46.000    26054859.190   104912125.055         539.564          43.000  
G29  23967254.938   125948776.3462      -2361.898          45.000    23967253.562    98141896.1141      -1838.924          37.000  
C11  24344822.832   126769877.661       -2580.391          42.000    24344814.683    98026468.494       -1993.352          42.000  
C06  39967951.343                        1076.339          28.000    39967943.273   160934345.3622        829.731          33.000  
C07  40071998.852   208665406.473       -1816.417          37.000    40071987.339   161353280.8852      -1405.647          39.000  
C09  41032110.366                         888.881          28.000    41032112.287                         688.183          30.000  
C39  39349204.242   204901631.854        1053.123          38.000                                                                  
C40  40586021.074                1      -2089.295          37.000                                                                  
R19  20934612.974   111986063.819        -551.058          48.000    20934607.920    87100243.456        -427.372          41.000  
R05  22474030.883   120136572.420        -426.300          45.000    22474026.714    93439540.3843       -331.378          36.000  
G18  24144536.021   126880387.4322       2537.591          45.000    24144534.185    98867833.121        1977.408          37.000  
S28  39117009.072   205561272.473        -408.302          45.000  
G24  23295817.913   122420345.1172       2462.554          41.000    23295816.770    95392446.666        1920.328          34.000  
S29  38693326.786   203334800.446        -408.443          46.000  
E09  28002134.571   147152213.522        1529.908          41.000                                                                  
C10  39669956.125   206571878.938       -1824.409          40.000    39669949.696   159734446.7942      -1412.305          43.000  
C43  23816891.578   124020817.114       -1260.371          45.000                                                                  
> 2025 09 16 02 01 25.0060000  0 22                     
S37  38292661.568   201229294.954        -412.079          39.000  
E04  25263585.744   132761047.532        -515.629          41.000    25263583.949   101725986.534        -394.683          47.000  
J03  38539187.972   202524798.930         491.294          37.000    38539187.182   157811528.4611        385.793          35.000  
J07  38292665.661   201229302.235        -412.590          33.000    38292663.358   156802045.586        -321.730          37.000  
E06  26054724.980   136918580.025         701.812          46.000    26054725.610   104911588.211         537.188          44.000  
G29  23967704.963   125951141.343       -2364.030          45.000    23967704.256    98143738.962       -1839.916          31.000  
C11  24345318.726   126772459.931       -2579.656          41.000    24345310.654    98028465.405       -1995.950          42.000  
C06  39967746.510   208122543.6853       1077.405          27.000    39967737.091                         829.697          35.000  
C07  40072348.048   208667224.771       -1818.280          35.000    40072337.764   161354686.9412      -1404.247          35.000  
C09  41031945.839                         890.594          28.000    41031938.646                         687.211          24.000  
C39  39349002.352   204900582.117        1049.856          38.000                                                                  
C40  40586421.099                       -2095.703          26.000                                                                  
R19  20934716.315   111986616.642        -549.812          44.000    20934711.274    87100673.556        -429.223          43.000  
R05  22474111.435   120137002.651        -427.769          48.000    22474110.863    93439874.4151       -334.774          41.000  
G18  24144053.137   126877849.3921       2539.579          44.000    24144051.219    98865855.990        1977.397          38.000  
S28  39117087.272   205561683.426        -408.923          45.000  
G24  23295349.607   122417884.428        2461.616          39.000    23295348.506    95390529.296        1917.233          36.000  
S29  38693405.115   203335211.848        -409.316          44.000  
E09  28001844.132                        1524.919          32.000                                                                  
C10  39670307.029   206573705.440       -1825.364          36.000    39670300.166                       -1417.869          32.000  
C43  23817134.166   124022080.594       -1262.193          48.000                                                                  
E14  21908217.957   115128462.234       -5485.504          35.000                                                                  
> 2025 09 16 02 01 26.0060000  0 22                     
S37  38292740.167   201229706.8403       -412.061          37.000  
E04  25263684.227   132761555.7221       -515.304          41.000    25263682.194   101726382.899        -394.801          36.000  
J03  38539094.167   202524305.8643        493.303          43.000    38539091.724   157811144.402         385.330          41.000  
J07  38292744.322   201229728.6023       -411.757          33.000    38292741.909   156802367.809        -322.355          37.000  
E06  26054591.437   136917801.1681        702.427          42.000    26054592.358   104911051.268         537.584          42.000  
G29  23968155.149   125953506.472       -2363.506          44.000    23968152.173    98145581.984       -1841.098          34.000  
C11  24345814.659   126775041.896       -2580.919          41.000    24345806.545    98030461.959       -1995.222          40.000  
C06  39967539.635   208121466.3262       1075.422          31.000    39967530.378   160932682.7523        831.137          31.000  
C07  40072697.797                       -1805.623          26.000    40072691.472                       -1405.256          26.000  
C09  41031779.805   213663244.5693        902.230          27.000    41031769.307                         686.652          25.000  
C39  39348800.523   204899529.4603       1051.785          32.000                                                                  
C40  40586823.916                       -2091.405          28.000                                                                  
R19  20934819.637   111987169.502        -551.116          42.000    20934814.624    87101103.454        -429.315          38.000  
R05  22474191.884   120137435.1693       -427.833          45.000    22474189.960    93440208.935        -333.315          29.000  
G18  24143570.210   126875311.533        2540.414          41.000    24143568.298    98863878.461        1979.625          35.000  
S28  39117165.335   205562090.5563       -408.550          43.000  
G24  23294881.268   122415423.161        2459.154          36.000    23294880.270    95388611.609        1918.137          34.000  
S29  38693483.311   203335626.2523       -409.667          41.000  
E09  28001561.989   147149200.5261       1529.682          40.000                                                                  
C10  39670658.192                       -1836.948          28.000    39670650.625                       -1406.514          26.000  
C43  23817376.917   124023330.8373      -1262.379          44.000                                                                  
E14  21909300.225                       -5481.266          30.000                                                                  
> 2025 09 16 02 01 27.0060000  0 22                     
S37  38292818.328   201230118.3262       -411.871          37.000  
E04  25263782.464   132762070.995        -515.660          44.000    25263780.854   101726777.626        -394.459          46.000  
J03  38538999.998   202523810.9192        494.974          37.000    38538997.320   157810750.8401        384.635          34.000  
J07  38292822.625   201230140.0862       -411.903          34.000    38292820.043   156802688.261        -321.759          37.000  
E06  26054457.822   136917098.226         702.532          43.000    26054458.104   104910512.594         538.260          36.000  
G29  23968604.865   125955869.563       -2364.208          43.000    23968602.758    98147423.341       -1839.152          33.000  
C11  24346310.100   126777621.936       -2580.652          39.000    24346301.950    98032456.905       -1995.480          38.000  
C06  39967336.461   208120408.3432       1076.834          30.000    39967323.302   160931851.1502        834.631          32.000  
C07  40073048.712                       -1811.118          26.000    40073047.133   161357554.3113      -1399.119          34.000  
C09  41031605.060                         892.412          20.000    41031597.250                         689.932          31.000  
C39  39348598.338   204898476.669        1052.841          37.000                                                                  
C40  40587227.487   211348344.2793      -2089.914          28.000                                                                  
R19  20934922.763   111987720.903        -552.291          40.000    20934917.627    87101532.360        -430.074          38.000  
R05  22474272.009   120137863.9252       -428.999          45.000    22474267.930    93440541.592        -334.278          37.000  
S28  39117242.802   205562498.6022       -408.163          43.000  
G24  23294412.466   122412960.068        2463.187          38.000    23294411.535    95386692.075        1919.111          36.000  
S29  38693560.996   203336034.6732       -407.977          41.000  
E09  28001258.217   147147669.869        1531.460          37.000                                                                  
C10  39671007.980   206577348.8933      -1821.098          34.000    39671001.228   159738682.9373      -1409.575          34.000  
C43  23817619.235   124024592.244       -1260.932          46.000                                                                  
E14  21910325.274   115139535.7541      -5478.193          35.000                                                                  
G18                                                                  24143085.006    98861899.257        1980.817          37.000  
> 2025 09 16 02 01 28.0060000  0 23                     
S37  38292896.547   201230529.4382       -412.952          37.000  
E04  25263880.465   132762586.368        -516.717          46.000    25263879.155   101727172.473        -396.375          46.000  
J03  38538905.287                         494.423          26.000    38538903.729   157810365.208         386.019          36.000  
J07  38292900.897   201230551.2022       -412.612          34.000    38292898.163   156803008.599        -320.941          35.000  
E06  26054323.955   136916394.885         701.708          46.000    26054324.416   104909973.853         536.760          40.000  
G29  23969054.283   125958232.014       -2363.518          46.000    23969051.238    98149264.256       -1842.219          36.000  
C11  24346805.633   126780201.691       -2579.261          42.000    24346797.429    98034451.784       -1994.292          40.000  
C06  39967128.848                        1077.531          24.000    39967120.626                         832.502          32.000  
C07  40073396.205                       -1814.232          25.000    40073388.023   161358956.8562      -1402.484          34.000  
C09  41031441.269                         897.104          29.000    41031427.316                         685.733          27.000  
C39  39348395.930   204897422.4873       1052.645          32.000                                                                  
C40  40587633.089                       -2079.589          31.000                                                                  
R19  20935025.938   111988273.068        -554.397          42.000    20935020.773    87101961.781        -432.701          37.000  
R05  22474351.909   120138291.6322       -428.835          45.000    22474348.369    93440874.088        -332.947          40.000  
G18  24142604.051   126870239.6373       2539.696          35.000    24142604.326    98859928.0561       1979.819          28.000  
S28  39117320.208   205562905.8682       -408.654          45.000  
G24  23293943.573   122410496.827        2461.121          38.000    23293942.869    95384772.820        1915.553          28.000  
S29  38693638.580   203336442.3852       -408.262          45.000  
E09  28000972.066   147146138.292        1530.464          44.000                                                                  
C10  39671358.786   206579171.7252      -1823.707          34.000    39671348.219   159740092.5942      -1411.550          35.000  
C43  23817861.369   124025853.659       -1262.776          47.000                                                                  
E14  21911374.044                       -5479.163          34.000                                                                  
R04                                                                  22872759.723                       -2023.227          21.000  
> 2025 09 16 02 01 29.0060000  0 22                     
S37  38292974.669   201230940.2342       -412.830          39.000  
E04  25263978.673   132763101.522        -517.431          44.000    25263976.998   101727567.155        -396.784          45.000  
J03  38538809.022   202522807.6153        493.500          43.000    38538810.174   157809979.513         383.593          37.000  
J07  38292978.978   201230961.9632       -411.777          36.000    38292976.314   156803328.734        -322.153          38.000  
E06  26054189.732   136915690.920         700.597          43.000    26054190.956   104909434.317         534.128          39.000  
G29  23969503.718   125960593.648       -2363.980          45.000    23969499.372    98151104.411       -1841.731          34.000  
C11  24347301.109   126782781.273       -2580.988          43.000    24347292.817    98036446.523       -1995.999          39.000  
C06  39966921.674   208118248.8873       1075.046          34.000    39966909.113                         831.465          29.000  
C07  40073744.250   208674501.6863      -1814.859          42.000    40073732.144   161360358.9642      -1403.538          26.000  
C09  41031260.586   213660541.0093        893.152          36.000    41031254.955   165215861.0063        690.730          38.000  
C39  39348193.537   204896368.7502       1052.662          38.000                                                                  
C40  40588030.200   211352523.9093      -2089.954          35.000                                                                  
R19  20935129.201   111988825.460        -556.017          42.000    20935123.999    87102391.435        -434.428          39.000  
R05  22474431.640   120138718.0531       -429.097          43.000    22474429.594    93441206.405        -335.247          38.000  
S28  39117397.503   205563311.9602       -408.805          44.000  
G24  23293474.854   122408033.310        2460.404          39.000    23293475.100    95382886.0341       1919.296          35.000  
S29  38693715.936   203336849.1072       -408.400          45.000  
E09  28000676.599   147144605.714        1528.018          40.000                                                                  
C10  39671707.612   206580993.3032      -1823.211          43.000    39671698.587   159741501.1012      -1409.232          39.000  
C43  23818103.608   124027114.698       -1264.308          45.000                                                                  
E14  21912398.828   115150432.9641      -5482.979          41.000                                                                  
G18                                                                  24142121.028    98857949.5181       1979.405          41.000  
> 2025 09 16 02 01 30.0060000  0 23                     
S37  38293052.897   201231351.4402       -409.998          42.000  
E04  25264076.734   132763617.844        -517.558          46.000    25264075.151   101727962.814        -395.321          42.000  
J03  38538717.253   202522313.3912        494.479          43.000    38538715.916   157809594.352         385.151          40.000  
J07  38293057.251   201231373.2212       -410.040          39.000    38293054.411   156803649.194        -321.099          38.000  
E06  26054056.134   136914987.643         701.349          45.000    26054057.009   104908895.274         539.019          42.000  
G29  23969953.230   125962955.850       -2363.978          45.000    23969951.012                       -1840.219          34.000  
C11  24347796.565   126785361.545       -2580.774          42.000    24347788.388    98038441.612       -1994.627          43.000  
C06  39966714.111   208117172.0492       1076.729          33.000    39966702.666                         831.490          29.000  
C07  40074090.679   208676315.0382      -1813.259          42.000    40074079.795   161361712.3983      -1405.466          38.000  
C09  41031087.415   213659647.4212        890.938          37.000    41031082.682   165215169.9382        691.742          39.000  
C39  39347991.085   204895315.4322       1052.594          39.000                                                                  
C40  40588427.159   211354611.7482      -2086.633          42.000                                                                  
R19  20935232.795   111989379.559        -555.380          47.000    20935227.465    87102822.342        -431.929          40.000  
R04  22873731.999   122487795.5093      -2598.305          41.000    22873689.685                       -2019.867          34.000  
R05  22474511.893   120139146.617        -428.964          48.000    22474510.916    93441539.568        -335.282          37.000  
G18  24141636.228   126865154.1092       2537.261          41.000    24141635.865    98855962.7301       1976.346          37.000  
S28  39117474.785   205563718.4022       -407.319          41.000  
G24  23293006.216   122405570.540        2461.870          40.000    23293006.106    95380967.026        1918.773          37.000  
S29  38693793.318   203337256.1142       -407.645          43.000  
E09  28000386.566   147143073.569        1530.948          40.000                                                                  
C10  39672057.612   206582815.0592      -1820.785          41.000    39672049.109   159742909.7302      -1409.085          39.000  
C43  23818346.006   124028376.721       -1262.961          48.000                                                                  
E14  21913440.124   115155912.636       -5480.670          45.000                                                                  
> 2025 09 16 02 01 31.0060000  0 23                     
S37  38293130.485   201231758.8822       -408.124          44.000  
E04  25264174.351   132764130.678        -512.871          44.000    25264172.812   101728355.904        -394.222          41.000  
J03  38538622.410   202521814.7061        498.175          44.000    38538621.230   157809206.160         389.033          40.000  
J07  38293134.665   201231780.665        -408.564          40.000    38293131.912   156803966.766        -320.189          43.000  
E06  26053921.496   136914281.638         704.556          45.000    26053922.764   104908354.260         543.667          35.000  
G29  23970402.401   125965316.249       -2363.603          47.000    23970399.384    98154777.4631      -1842.245          37.000  
C11  24348291.561   126787938.806       -2578.848          46.000    24348283.391    98040434.561       -1994.049          44.000  
C06  39966505.170   208116092.7642       1079.883          37.000    39966496.296   160928518.2423        830.852          41.000  
C07  40074438.297   208678126.2932      -1814.251          39.000    40074427.077   161363110.8483      -1404.017          37.000  
C09  41030915.578   213658743.8133        893.434          38.000    41030910.404   165214473.0513        691.919          40.000  
C39  39347788.074   204894259.0262       1054.685          43.000                                                                  
C40  40588829.253   211356697.8062      -2088.684          45.000                                                                  
R19  20935335.850   111989930.587        -552.337          47.000    20935330.344    87103250.799        -426.100          37.000  
R04  22874160.338   122490390.4162      -2595.040          45.000    22874152.375    95270035.9873      -2019.468          36.000  
R05  22474591.646   120139573.022        -428.408          47.000    22474590.572    93441871.240        -331.481          35.000  
G18  24141153.301   126862613.629        2540.260          42.000    24141152.621    98853983.182        1977.157          37.000  
S28  39117551.557   205564122.1452       -405.779          46.000  
G24  23292536.970   122403104.779        2464.606          44.000    23292534.812    95379045.722        1923.034          36.000  
S29  38693870.210   203337660.0712       -405.629          44.000  
E09  28000095.816   147141539.991        1531.273          44.000                                                                  
C10  39672407.882   206584634.6522      -1822.098          41.000    39672399.222   159744316.8532      -1410.193          39.000  
C43  23818587.703   124029635.813       -1260.355          46.000                                                                  
E14  21914481.105   115161390.844       -5479.289          42.000                                                                  
> 2025 09 16 02 01 32.0060000  0 23                     
S37  38293208.131   201232166.8573       -408.435          42.000  
E04  25264272.723   132764645.565        -516.292          44.000    25264270.895   101728750.373        -393.565          46.000  
J03  38538528.466   202521317.692         496.710          45.000    38538526.638   157808818.885         387.756          43.000  
J07  38293212.312   201232189.131        -408.473          38.000    38293209.522   156804285.066        -320.627          39.000  
E06  26053787.844   136913577.434         705.915          42.000    26053788.939   104907814.942         539.360          42.000  
G29  23970851.837   125967677.819       -2360.433          44.000    23970849.516    98156617.750       -1839.215          37.000  
C11  24348786.686   126790517.462       -2578.374          44.000    24348778.660    98042428.624       -1992.148          45.000  
C06  39966299.551   208115013.5902       1081.562          39.000    39966289.712   160927683.7442        834.540          40.000  
C07  40074785.762   208679937.6952      -1810.702          39.000    40074775.965   161364511.6232      -1397.927          39.000  
C09  41030743.275   213657847.9062        898.152          37.000    41030738.962   165213780.4282        693.633          39.000  
C39  39347585.175   204893203.2932       1056.152          43.000                                                                  
C40  40589230.422   211358783.6562      -2083.264          41.000                                                                  
R19  20935439.313   111990484.211        -555.217          46.000    20935433.950    87103681.475        -428.810          41.000  
R04  22874629.277   122492985.5972      -2595.499          41.000    22874630.579    95272054.4212      -2017.366          35.000  
R05  22474671.749   120140000.775        -426.963          46.000    22474670.524    93442203.935        -332.143          39.000  
G18  24140672.028   126860073.993        2540.766          42.000    24140668.605    98852004.183        1979.945          37.000  
S28  39117628.707   205564526.6343       -403.897          45.000  
G24  23292068.129   122400640.195        2465.299          44.000    23292066.159    95377125.379        1920.424          38.000  
S29  38693947.373   203338064.8353       -402.709          45.000  
E09  27999803.839   147140007.059        1534.191          42.000                                                                  
C10  39672756.269   206586454.8032      -1819.578          40.000    39672748.758   159745724.3652      -1405.879          37.000  
C43  23818830.088   124030897.055       -1259.996          46.000                                                                  
E14  21915527.688   115166869.704       -5477.771          44.000                                                                  
> 2025 09 16 02 01 33.0060000  0 23                     
S37  38293285.785   201232574.8382       -410.205          41.000  
E04  25264370.785   132765160.770        -519.335          44.000    25264369.367   101729145.136        -399.455          39.000  
J03  38538433.442   202520820.633         495.239          44.000    38538431.888   157808431.642         385.070          39.000  
J07  38293289.892   201232597.100        -409.866          37.000    38293287.046   156804602.869        -317.902          37.000  
E06  26053653.445   136912871.916         705.236          43.000    26053654.705   104907274.274         539.469          46.000  
G29  23971300.831   125970037.256       -2358.430          43.000    23971297.902                       -1839.063          31.000  
C11  24349281.800   126793095.140       -2578.584          45.000    24349273.718    98044421.722       -1993.776          44.000  
C06  39966089.959   208113932.174        1082.723          39.000    39966080.885   160926847.488         834.891          38.000  
C07  40075133.539   208681746.270       -1809.261          36.000    40075123.629   161365909.5501      -1399.769          40.000  
C09  41030571.839   213656949.241         898.692          39.000    41030565.572   165213085.468         694.689          37.000  
C39  39347381.987   204892146.095        1056.498          43.000                                                                  
C40  40589630.475   211360866.2961      -2081.653          40.000                                                                  
R19  20935542.907   111991038.580        -557.064          45.000    20935537.552    87104112.673        -431.767          37.000  
R04  22875111.569   122495581.8282      -2599.131          43.000    22875110.763    95274073.8042      -2021.585          35.000  
R05  22474751.643   120140428.004        -429.857          46.000    22474750.510    93442536.107        -332.670          32.000  
G18  24140188.627   126857534.675        2534.197          41.000    24140185.418    98850025.456        1975.535          38.000  
S28  39117705.418   205564929.6062       -405.504          42.000  
G24  23291598.921   122398174.552        2463.890          44.000    23291595.853    95375203.975        1919.972          38.000  
S29  38694024.189   203338468.3952       -404.302          44.000  
E09  27999511.558   147138471.445        1535.609          41.000                                                                  
C10  39673105.249   206588271.7111      -1818.013          38.000    39673097.692   159747129.1141      -1404.465          42.000  
C43  23819072.265   124032157.652       -1263.396          44.000                                                                  
E14  21916566.974   115172346.232       -5475.498          39.000                                                                  
> 2025 09 16 02 01 34.0060000  0 23                     
S37  38293363.049   201232981.182        -404.602          39.000  
E04  25264468.313   132765675.276        -510.942          41.000    25264466.804   101729539.219        -392.141          39.000  
J03  38538338.269   202520322.257         500.100          42.000    38538336.914   157808043.420         388.018          39.000  
J07  38293367.215   201233003.461        -405.173          36.000    38293364.294   156804919.453        -316.261          39.000  
E06  26053519.017   136912165.892         707.417          44.000    26053520.624   104906733.174         542.240          45.000  
G29  23971749.694   125972396.172       -2357.268          47.000    23971745.251    98160295.0921      -1836.854          36.000  
C11  24349776.725   126795671.480       -2574.381          45.000    24349768.557    98046413.929       -1990.338          45.000  
C06  39965883.376   208112849.212        1085.964          37.000    39965873.748   160926009.897         840.159          44.000  
C07  40075480.519   208683553.378       -1803.866          40.000    40075470.385   161367306.863       -1395.540          41.000  
C09  41030398.699   213656048.991         902.976          39.000    41030393.792   165212389.152         700.960          37.000  
C39  39347178.515   204891087.368        1060.785          44.000                                                                  
C40  40590029.353   211362947.753       -2077.875          41.000                                                                  
R19  20935646.527   111991592.711        -552.199          45.000    20935641.054    87104543.764        -429.960          40.000  
R04  22875594.896   122498179.4082      -2594.644          43.000    22875594.404    95276094.1612      -2019.852          36.000  
R05  22474831.637   120140855.772        -426.586          44.000    22474830.512    93442868.948        -332.873          38.000  
G18  24139704.978   126854996.473        2538.655          43.000    24139703.125    98848047.594        1978.617          37.000  
S28  39117781.891   205565331.570        -400.341          39.000  
G24  23291129.355   122395707.448        2468.582          44.000    23291127.386    95373281.588        1923.767          40.000  
S29  38694100.860   203338870.730        -400.581          44.000  
E09  27999219.059   147136935.377        1538.382          37.000                                                                  
C10  39673454.095   206590087.795       -1813.577          42.000    39673446.566   159748533.383       -1402.786          43.000  
C43  23819314.190   124033417.541       -1258.539          46.000                                                                  
E14  21917611.417   115177821.828       -5473.000          45.000                                                                  
> 2025 09 16 02 01 35.0060000  0 23                     
S37  38293439.798   201233384.927        -403.394          40.000  
E04  25264565.950   132766189.125        -513.381          40.000    25264564.487   101729933.028        -395.311          39.000  
J03  38538241.927   202519821.472         502.768          40.000    38538241.550   157807652.946         390.376          42.000  
J07  38293443.979   201233407.185        -403.135          37.000    38293440.977   156805234.035        -313.861          40.000  
E06  26053384.405   136911458.546         707.630          41.000    26053385.870   104906191.225         542.890          41.000  
G29  23972198.235   125974753.714       -2357.080          45.000    23972192.611    98162132.165       -1836.716          36.000  
C11  24350271.050   126798245.854       -2573.586          43.000    24350262.969    98048404.542       -1989.369          40.000  
C06  39965674.301   208111763.180        1087.466          35.000    39965663.651   160925170.166         840.990          33.000  
C07  40075827.349   208685358.033       -1803.962          37.000    40075817.218   161368702.277       -1394.831          38.000  
C09  41030224.990   213655145.721         903.411          37.000    41030222.854   165211690.825         697.981          35.000  
C39  39346974.569   204890025.815        1062.131          44.000                                                                  
C40  40590428.306   211365026.605       -2081.024          35.000                                                                  
R19  20935750.002   111992146.238        -553.685          45.000    20935744.413    87104974.202        -430.570          39.000  
R04  22876079.649   122500775.9092      -2596.873          43.000    22876077.717    95278113.4792      -2019.309          36.000  
R05  22474911.640   120141283.373        -427.961          46.000    22474910.394    93443201.401        -332.480          36.000  
G18  24139222.086   126852457.969        2538.672          41.000    24139220.013    98846069.630        1978.021          37.000  
S28  39117858.081   205565732.061        -400.487          37.000  
G24  23290659.425   122393238.001        2470.032          41.000    23290657.905    95371357.339        1924.747          35.000  
S29  38694177.094   203339271.394        -400.043          40.000  
E09  27998926.489   147135397.949        1537.474          34.000                                                                  
C10  39673802.535   206591901.887       -1813.943          39.000    39673795.081   159749936.148       -1402.717          43.000  
C43  23819556.031   124034676.635       -1259.727          48.000                                                                  
E14  21918653.212   115183295.395       -5472.777          39.000                                                                  
> 2025 09 16 02 01 36.0060000  0 23                     
S37  38293516.679   201233788.551        -402.313          43.000  
E04  25264663.640   132766703.385        -512.910          42.000    25264662.588   101730327.011        -392.893          44.000  
J03  38538146.694   202519320.798         502.480          44.000    38538146.188   157807262.832         390.524          41.000  
J07  38293520.828   201233810.835        -402.357          38.000    38293517.769   156805548.460        -313.889          40.000  
E06  26053249.656   136910751.329         707.648          41.000    26053251.055   104905649.214         541.276          40.000  
G29  23972646.695   125977110.746       -2355.425          45.000    23972642.627    98163968.807       -1833.817          36.000  
C11  24350765.416   126800820.032       -2572.795          43.000    24350757.362    98050395.048       -1989.725          42.000  
C06  39965465.925   208110676.416        1087.234          40.000    39965456.257   160924329.790         841.653          34.000  
C07  40076173.671   208687161.604       -1802.059          39.000    40076163.793   161370096.835       -1390.798          34.000  
C09  41030051.249   213654241.205         906.421          36.000    41030046.763   165210995.9503        698.757          37.000  
C39  39346770.658   204888963.774        1063.904          41.000                                                                  
C40  40590827.434   211367104.089       -2076.129          43.000                                                                  
R19  20935853.665   111992700.699        -553.474          43.000    20935848.063    87105405.490        -430.454          37.000  
R04  22876564.910   122503373.3022      -2597.220          44.000    22876563.763    95280133.6882      -2019.950          37.000  
R05  22474991.707   120141711.295        -426.620          46.000    22474990.266    93443534.147        -331.108          34.000  
G18  24138738.833   126849920.206        2537.719          43.000    24138736.861    98844092.187        1974.637          34.000  
S28  39117934.274                1       -400.732          34.000  
G24  23290189.503   122390768.301        2471.658          43.000    23290187.726    95369432.934        1925.446          35.000  
S29  38694253.186   203339671.499        -397.065          41.000  
E09  27998633.966   147133859.726        1539.759          32.000                                                                  
C10  39674150.840   206593714.947       -1810.901          35.000    39674143.302                1      -1402.838          23.000  
C43  23819797.787   124035935.732       -1257.858          48.000                                                                  
E14  21919694.888   115188768.521       -5471.564          42.000                                                                  
> 2025 09 16 02 01 37.0060000  0 23                     
S37  38293593.369   201234190.948        -402.765          41.000  
E04  25264761.399   132767217.232        -515.454          42.000    25264760.431   101730720.753        -393.029          46.000  
J03  38538051.332   202518819.088         500.579          44.000    38538050.554   157806871.995         388.342          35.000  
J07  38293597.356   201234213.183        -402.441          38.000    38293594.384   156805862.148        -313.368          36.000  
E06  26053115.137   136910043.267         706.654          42.000    26053116.656   104905106.736         541.302          38.000  
G29  23973095.041   125979467.152       -2357.611          45.000    23973093.393    98165804.870       -1833.740          39.000  
C11  24351259.654   126803393.306       -2575.137          44.000    24351251.557    98052384.871       -1990.493          46.000  
C06  39965257.020   208109588.074        1088.215          41.000    39965247.421   160923488.190         841.693          33.000  
C07  40076519.786   208688963.603       -1802.098          43.000    40076509.482   161371490.426       -1394.293          37.000  
C09  41029877.280   213653335.244         907.031          40.000    41029873.099   165210295.3602        699.066          41.000  
C39  39346566.432   204887900.453        1062.395          43.000                                                                  
C40  40591225.958   211369180.137       -2076.923          44.000                                                                  
R19  20935957.434   111993255.339        -555.110          46.000    20935951.822    87105836.777        -433.468          37.000  
R04  22877049.903   122505970.897       -2596.663          42.000    22877048.746    95282153.6081      -2021.106          37.000  
R05  22475071.834   120142139.243        -428.523          47.000    22475070.315    93443867.056        -332.458          39.000  
G18  24138256.043   126847382.727        2537.015          43.000    24138254.153    98842114.838        1977.381          39.000  
S28  39118010.305   205566530.8623       -399.877          39.000  
G24  23289719.451   122388297.744        2468.918          43.000    23289717.534    95367507.736        1923.777          38.000  
S29  38694329.115   203340070.534        -400.979          44.000  
E09  27998340.911   147132320.631        1537.860          36.000    27998343.798   112737728.344        1178.894          31.000  
C10  39674498.775   206595526.712       -1812.547          41.000    39674491.120   159752734.5643      -1402.486          36.000  
C43  23820039.440   124037194.421       -1259.800          49.000                                                                  
E14  21920736.138   115194240.545       -5474.290          44.000                                                                  
> 2025 09 16 02 01 38.0060000  0 25                     
S37  38293669.409   201234590.345        -401.111          41.000  
E04  25264858.996   132767728.658        -513.716          41.000    25264858.318   101731112.659        -396.066          43.000  
J03  38537955.275   202518314.416         502.925          44.000    38537954.427   157806478.643         392.551          41.000  
J07  38293673.218   201234612.642        -401.692          38.000    38293670.323   156806173.307        -312.983          42.000  
E06  26052980.017   136909333.192         707.351          41.000    26052981.357   104904562.697         542.413          37.000  
G29  23973543.046   125981821.599       -2356.819          46.000    23973540.061    98167639.527       -1835.879          39.000  
C11  24351753.469   126805964.201       -2573.261          46.000    24351745.231    98054372.767       -1989.747          45.000  
C06  39965047.585   208108497.265        1089.510          38.000    39965037.771   160922644.625         842.860          37.000  
C07  40076865.433   208690763.282       -1800.848          41.000    40076854.732   161372881.922       -1391.947          40.000  
C09  41029702.754   213652426.942         908.364          42.000    41029698.449   165209593.0492        702.307          37.000  
C39  39346361.644   204886834.393        1064.498          44.000                                                                  
C40  40591623.871   211371253.808       -2074.738          45.000                                                                  
R19  20936060.766   111993807.849        -554.648          48.000    20936055.100    87106266.532        -432.146          39.000  
R04  22877534.531   122508566.078       -2597.245          44.000    22877533.116    95284172.012       -2019.921          37.000  
R05  22475151.532   120142565.232        -427.629          46.000    22475150.020    93444198.393        -334.119          38.000  
G18  24137772.886   126844843.345        2537.316          45.000    24137770.865    98840135.999        1978.615          37.000  
S28  39118085.703   205566927.1502       -396.733          39.000  
G24  23289248.809   122385824.649        2470.941          44.000    23289246.989    95365580.693        1923.682          38.000  
G23  25365593.177   133297091.649        1347.043          39.000                                                                  
S29  38694404.559   203340466.874        -397.586          48.000  
E09  27998047.687   147130779.679        1540.232          35.000    27998050.165   112736547.762        1179.215          31.000  
C10  39674846.253   206597336.084       -1810.364          43.000    39674836.876                       -1399.333          36.000  
C43  23820280.802   124038451.041       -1259.115          48.000                                                                  
E19  26636546.964   139975998.900       -2696.179          33.000                                                                  
E14  21921777.340   115199710.679       -5471.461          45.000                                                                  
> 2025 09 16 02 01 39.0060000  0 26                     
S37  38293745.322   201234989.440        -399.896          44.000  
E04  25264956.562   132768240.360        -513.645          45.000    25264955.201   101731504.704        -391.849          41.000  
J03  38537859.260   202517809.585         504.198          48.000    38537858.330   157806085.217         393.348          41.000  
J07  38293749.259   201235011.727        -400.402          40.000    38293746.125   156806484.183        -310.742          40.000  
E06  26052845.123   136908623.022         709.719          41.000    26052846.193   104904018.558         543.267          39.000  
G29  23973991.040   125984175.849       -2356.218          44.000    23973987.242    98169469.9791      -1834.787          31.000  
C11  24352247.133   126808535.044       -2572.478          46.000    24352238.900    98056360.680       -1988.271          46.000  
C06  39964838.101   208107405.854        1089.292          40.000    39964828.251   160921800.667         842.669          36.000  
C07  40077210.955   208692562.224       -1799.939          42.000    40077200.310   161374273.036       -1391.415          44.000  
C09  41029528.311   213651517.914         907.884          42.000    41029525.800   165208889.6381        702.534          39.000  
C39  39346156.787   204885767.956        1064.751          43.000                                                                  
C40  40592021.687   211373326.879       -2075.043          42.000                                                                  
R19  20936164.175   111994361.088        -553.569          44.000    20936158.561    87106696.922        -431.680          42.000  
R04  22878019.190   122511161.067       -2595.127          46.000    22878017.469    95286190.293       -2017.982          37.000  
R05  22475231.262   120142991.311        -427.414          47.000    22475229.722    93444529.770        -330.590          38.000  
G18  24137289.623   126842303.851        2539.394          46.000    24137287.627    98838157.3311       1978.276          37.000  
S28  39118161.112   205567323.3222       -395.400          37.000  
G24  23288778.108   122383351.460        2472.030          46.000    23288776.322    95363653.534        1925.576          33.000  
G23  25365336.404   133295742.057        1349.025          38.000                                                                  
S29  38694479.913   203340862.903        -396.801          48.000  
E09  27997754.206   147129238.508        1540.041          35.000    27997757.507   112735366.818        1181.687          31.000  
C10  39675193.489   206599144.979       -1810.099          42.000    39675185.212   159755530.0153      -1399.195          37.000  
C43  23820522.155   124039707.851       -1257.306          48.000                                                                  
E19  26637061.243   139978694.155       -2694.882          33.000                                                                  
E10  25649604.700   134789582.329         834.788          46.000                                                                  
E14  21922818.310   115205180.742       -5471.118          47.000                                                                  
> 2025 09 16 02 01 40.0060000  0 26                     
S37  38293821.333   201235388.633        -398.315          42.000  
E04  25265053.896   132768752.036        -509.184          42.000    25265053.214   101731896.786        -392.365          45.000  
J03  38537763.273   202517304.885         506.176          42.000    38537762.210   157805692.043         393.262          41.000  
J07  38293825.312   201235410.929        -398.694          38.000    38293822.078   156806795.407        -310.797          43.000  
E06  26052709.939   136907913.056         710.475          33.000    26052711.076   104903474.570         544.458          37.000  
G29  23974439.139   125986530.402       -2354.586          47.000    23974435.581    98171304.784       -1834.749          35.000  
C11  24352740.987   126811106.366       -2571.704          44.000    24352732.735    98058349.073       -1988.480          46.000  
C06  39964628.463   208106314.527        1091.227          38.000    39964618.817   160920956.807         843.652          40.000  
C07  40077556.342   208694361.336       -1800.078          39.000    40077545.921   161375664.255       -1391.542          43.000  
C09  41029353.663   213650609.073         909.187          41.000    41029349.837   165208186.844         699.253          33.000  
C39  39345952.054   204884701.738        1066.664          44.000                                                                  
C40  40592419.552   211375400.045       -2073.602          39.000                                                                  
R19  20936267.738   111994915.265        -554.435          47.000    20936262.005    87107127.677        -429.042          38.000  
R04  22878503.750   122513755.873       -2595.026          43.000    22878501.838    95288208.426       -2018.010          37.000  
R05  22475310.811   120143417.323        -425.095          47.000    22475309.316    93444861.186        -331.656          39.000  
G18  24136806.338   126839764.343        2539.133          42.000    24136804.231    98836178.356        1979.208          40.000  
S28  39118236.521   205567719.7842       -396.329          36.000  
G24  23288307.528   122380878.785        2472.832          43.000    23288305.877    95361726.735        1925.154          40.000  
G23  25365079.505   133294391.862        1350.036          35.000                                                                  
S29  38694555.382   203341258.928        -396.541          47.000  
E09  27997461.011   147127697.364        1540.608          34.000    27997464.053   112734185.928        1181.785          31.000  
C10  39675540.936   206600953.819       -1809.012          42.000    39675533.232   159756928.7102      -1398.256          40.000  
C43  23820763.606   124040964.945       -1255.852          42.000                                                                  
E19  26637571.948   139981389.403       -2695.181          31.000                                                                  
E10  25649446.687   134788747.690         835.065          44.000                                                                  
E14  21923859.338   115210651.477       -5471.021          43.000                                                                  
> 2025 09 16 02 01 41.0060000  0 26                     
S37  38293897.480   201235788.695        -400.769          41.000  
E04  25265151.273   132769264.943        -513.975          42.000    25265150.789   101732289.769        -396.082          46.000  
J03  38537667.469   202516801.120         503.193          42.000    38537666.172   157805299.435         391.840          43.000  
J07  38293901.469   201235810.953        -400.682          37.000    38293898.062   156807107.119        -313.610          43.000  
E06  26052577.378                         705.563          28.000    26052576.151   104902931.342         543.142          31.000  
G29  23974887.365   125988886.180       -2357.284          45.000    23974883.901    98173140.492       -1836.512          36.000  
C11  24353235.041   126813678.998       -2574.142          44.000    24353226.818    98060338.355       -1989.940          45.000  
C06  39964419.171   208105224.230        1090.339          38.000    39964409.435   160920116.2113        843.143          36.000  
C07  40077902.016   208696161.246       -1799.813          39.000    40077891.638   161377056.016       -1392.672          41.000  
C09  41029179.398   213649701.058         907.025          40.000    41029174.458   165207484.627         701.804          36.000  
C39  39345747.461   204883636.545        1065.136          41.000                                                                  
C40  40592817.752   211377474.030       -2074.475          40.000                                                                  
R19  20936371.583   111995470.867        -557.149          46.000    20936365.987    87107560.070        -437.480          29.000  
R04  22878988.434   122516351.253       -2597.370          43.000    22878986.530    95290227.157       -2021.115          34.000  
R05  22475390.753   120143844.380        -429.221          44.000    22475389.171    93445193.296        -335.543          38.000  
G18  24136323.248   126837225.589        2535.604          41.000    24136321.078    98834200.147        1977.724          35.000  
S28  39118312.626   205568119.3753       -396.487          35.000  
G24  23287837.154   122378407.426        2471.172          41.000    23287835.511    95359800.813        1926.326          34.000  
G23  25364822.644                        1350.783          26.000                                                                  
S29  38694630.877   203341655.598        -397.772          43.000  
E09  27997168.430   147126157.412        1538.810          33.000    27997171.371   112733006.044        1180.605          33.000  
C10  39675888.474   206602763.608       -1809.845          40.000    39675880.348   159758328.2082      -1401.269          40.000  
C43  23821005.485   124042223.514       -1261.989          43.000                                                                  
E19  26638086.256   139984085.436       -2699.762          32.000                                                                  
E10  25649287.118   134787913.904         831.602          43.000                                                                  
E14  21924900.383   115216123.712       -5473.285          40.000                                                                  
> 2025 09 16 02 01 42.0060000  0 26                     
S37  38293973.385   201236188.082        -402.295          41.000  
E04  25265248.877   132769777.705        -515.420          45.000    25265248.042   101732682.769        -395.109          40.000  
J03  38537571.591   202516296.789         501.234          44.000    38537570.206   157804906.466         390.875          42.000  
J07  38293977.388   201236210.362        -402.550          38.000    38293974.035   156807418.341        -313.981          41.000  
E06  26052438.622   136906488.2651        706.119          33.000    26052441.553                         542.582          30.000  
G29  23975335.676   125991242.016       -2358.236          44.000    23975332.285    98174976.224       -1838.134          33.000  
C11  24353729.101   126816251.398       -2575.352          46.000    24353720.872    98062327.643       -1992.429          46.000  
C06  39964209.691   208104133.460        1088.266          42.000    39964200.018   160919272.9132        842.156          36.000  
C07  40078247.533   208697960.888       -1802.238          40.000    40078238.090   161378457.0773      -1394.060          35.000  
C09  41029004.862   213648792.609         906.155          43.000    41029001.614   165206787.6933        701.396          41.000  
C39  39345542.850   204882570.741        1063.435          43.000                                                                  
C40  40593215.991   211379547.498       -2075.629          44.000                                                                  
R19  20936475.501   111996027.018        -559.516          44.000    20936469.828    87107992.552        -433.968          40.000  
R04  22879473.075   122518946.693       -2597.133          41.000    22879471.170    95292245.796       -2019.078          32.000  
R05  22475470.632   120144271.714        -430.253          45.000    22475469.147    93445525.610        -333.258          35.000  
G18  24135840.285   126834687.227        2535.005          42.000    24135837.951    98832222.252        1976.603          37.000  
S28  39118388.069   205568515.8032       -399.547          33.000  
G24  23287366.756   122375935.845        2468.243          44.000    23287365.270    95357875.085        1922.773          39.000  
G23  25364568.744   133291707.9073       1346.013          28.000                                                                  
S29  38694706.294   203342051.980        -399.037          44.000  
E09  27996875.753   147124617.517        1536.841          30.000    27996878.686   112731826.166        1178.343          33.000  
C10  39676235.920   206604573.084       -1811.626          40.000    39676227.932   159759727.3662      -1402.605          37.000  
C43  23821247.127   124043482.030       -1261.765          46.000                                                                  
E19  26638599.318   139986781.181       -2696.188          32.000                                                                  
E10  25649128.501   134787080.085         831.257          43.000                                                                  
E14  21925941.657   115221596.036       -5474.842          45.000                                                                  
> 2025 09 16 02 01 43.0060000  0 26                     
S37  38294049.025   201236586.182        -396.332          42.000  
E04  25265346.420   132770289.015        -508.594          43.000    25265344.962   101733074.356        -389.638          39.000  
J03  38537475.408   202515791.138         507.585          45.000    38537473.846   157804512.520         394.047          34.000  
J07  38294053.090   201236608.473        -396.577          39.000    38294049.651   156807728.495        -308.806          36.000  
E06  26052304.196                         713.272          26.000    26052306.591   104901842.9911        545.083          31.000  
G29  23975783.744   125993596.713       -2352.675          48.000    23975780.336    98176811.021       -1834.029          35.000  
C11  24354222.961   126818822.906       -2569.606          46.000    24354214.682    98064316.021       -1986.951          46.000  
C06  39964000.012   208103041.538        1094.698          41.000    39963990.357   160918428.5422        846.774          41.000  
C07  40078592.936   208699758.963       -1794.824          41.000    40078582.057   161379847.6842      -1389.329          40.000  
C09  41028830.074   213647883.094         912.705          41.000    41028825.315   165206084.3882        705.409          39.000  
C39  39345338.053   204881503.914        1068.185          44.000                                                                  
C40  40593613.712   211381619.889       -2069.806          43.000                                                                  
R19  20936579.224   111996582.415        -554.495          49.000    20936573.743    87108424.540        -430.841          41.000  
R04  22879957.349   122521540.208       -2591.534          45.000    22879955.336    95294262.966       -2015.143          39.000  
R05  22475550.306   120144697.313        -423.404          49.000    22475548.642    93445856.725        -329.396          37.000  
G18  24135356.875   126832146.893        2542.703          44.000    24135354.577    98830242.821        1980.551          38.000  
S28  39118463.225                        -391.557          36.000  
G24  23286896.209   122373463.316        2475.222          46.000    23286894.757    95355948.481        1928.524          39.000  
G23  25364316.963                        1346.085          27.000                                                                  
S29  38694781.348   203342446.786        -392.622          45.000  
E09  27996581.982   147123076.348        1542.387          30.000    27996585.526   112730645.304        1181.857          29.000  
C10  39676583.089   206606381.078       -1805.513          40.000    39676576.079   159761125.4042      -1396.441          43.000  
C43  23821488.466   124044739.286       -1255.358          45.000                                                                  
E19  26639112.963   139989475.326       -2692.029          34.000                                                                  
E10  25648969.810   134786244.722         837.425          45.000                                                                  
E14  21926982.851   115227067.572       -5468.437          46.000                                                                  
> 2025 09 16 02 01 44.0060000  0 28                     
S37  38294124.391   201236982.483        -394.849          43.000  
E04  25265443.463   132770799.145        -507.880          42.000    25265442.105   101733465.361        -389.832          44.000  
J03  38537378.874   202515283.898         508.977          45.000    38537377.253   157804117.143         395.568          43.000  
J07  38294128.558   201237004.763        -394.907          39.000    38294125.016   156808037.141        -307.416          40.000  
E06  26052169.091   136905072.4171        713.224          34.000    26052171.366                         539.304          25.000  
G29  23976231.496   125995949.773       -2351.699          44.000    23976228.279    98178644.598       -1832.601          38.000  
C11  24354716.522   126821392.958       -2568.164          45.000    24354708.342    98066303.408       -1986.616          45.000  
C06  39963789.893   208101947.577        1094.955          40.000    39963780.386   160917582.6742        847.944          39.000  
C07  40078937.766   208701555.181       -1793.976          39.000    40078927.578   161381236.5282      -1388.375          41.000  
C09  41028654.837   213646970.941         915.228          30.000    41028652.093   165205379.2282        703.528          38.000  
C39  39345132.771   204880435.218        1069.324          43.000                                                                  
C40  40594011.255   211383690.132       -2069.366          41.000                                                                  
R19  20936682.898   111997136.912        -551.800          46.000    20936677.410    87108855.785        -428.531          37.000  
R03  26044035.550                       -3123.695          15.000                                                                  
R04  22880441.253   122524131.957       -2590.680          47.000    22880439.224    95296278.788       -2014.181          38.000  
R05  22475629.871   120145121.693        -422.578          49.000    22475628.035    93446186.701        -327.714          37.000  
G18  24134873.303   126829605.292        2542.837          45.000    24134870.765    98828262.289        1982.641          39.000  
S28  39118537.969                        -385.400          32.000  
G24  23286425.367   122370989.377        2475.555          44.000    23286424.084    95354020.704        1928.147          39.000  
G23  25364064.185                        1355.052          25.000                                                                  
S29  38694856.097   203342839.761        -391.345          43.000  
E09  27996287.653   147121533.384        1544.749          29.000    27996290.479   112729460.0551       1182.462          20.000  
C10  39676929.947   206608187.203       -1804.228          40.000    39676922.924   159762521.9242      -1394.446          38.000  
C43  23821729.732   124045995.622       -1253.383          46.000                                                                  
G15  22048859.364   115867536.7931      -1376.977          45.000                                                                  
E19  26639624.782   139992167.817       -2690.308          34.000                                                                  
E10  25648810.698   134785408.134         838.558          44.000                                                                  
E14  21928024.002   115232537.669       -5467.940          43.000                                                                  
> 2025 09 16 02 01 45.0060000  0 28                     
S37  38294199.985   201237379.621        -397.113          43.000  
E04  25265540.981   132771310.748        -511.174          45.000    25265539.729   101733857.331        -391.155          45.000  
J03  38537282.643   202514777.674         506.613          44.000    38537280.913   157803722.720         395.354          40.000  
J07  38294204.108   201237401.877        -396.814          39.000    38294200.579   156808346.780        -308.867          40.000  
E06  26052041.493                         710.089          29.000    26052034.158   104900745.2201        545.583          30.000  
G29  23976679.491   125998303.803       -2353.125          43.000    23976676.323    98180478.857       -1833.001          35.000  
C11  24355210.253   126823964.001       -2571.208          45.000    24355202.055    98068291.439       -1988.635          44.000  
C06  39963579.856   208100853.976        1093.472          42.000    39963570.479   160916736.5361        845.622          42.000  
C07  40079282.655   208703351.493       -1794.588          39.000    40079272.341   161382625.0591      -1388.953          40.000  
C09  41028479.910   213646061.2423        913.211          39.000    41028476.973   165204673.7691        703.264          37.000  
C39  39344927.569   204879367.142        1069.474          44.000                                                                  
C40  40594408.759   211385760.609       -2070.135          39.000                                                                  
R19  20936786.977   111997693.510        -556.593          46.000    20936781.485    87109288.675        -433.680          40.000  
R03  26044615.263                       -3123.695          15.000                                                                  
R04  22880925.529   122526725.429       -2593.413          45.000    22880923.471    95298295.993       -2017.435          37.000  
R05  22475709.504   120145547.387        -425.206          48.000    22475707.710    93446517.780        -330.593          36.000  
G18  24134389.910   126827065.144        2540.604          42.000    24134387.380    98826283.025        1978.549          33.000  
S28  39118613.939                        -399.219          31.000  
G24  23285954.822   122368516.290        2474.043          44.000    23285953.478    95352093.676        1927.805          38.000  
G23  25363813.202                        1348.036          22.000                                                                  
S29  38694931.047   203343233.300        -392.019          42.000  
E09  27995994.487                        1538.438          28.000    27995998.147   112728283.4241       1180.815          23.000  
C10  39677276.907   206609993.573       -1805.781          39.000    39677269.401   159763918.919       -1397.010          39.000  
C43  23821971.090   124047253.241       -1256.866          44.000                                                                  
G15  22049122.143   115868917.258       -1379.305          43.000                                                                  
E19  26640137.313   139994862.055       -2694.857          37.000                                                                  
E10  25648651.953   134784573.192         835.088          44.000                                                                  
E14  21929065.093   115238008.435       -5469.234          45.000                                                                  
> 2025 09 16 02 01 46.0060000  0 30                     
S37  38294275.886   201237778.443        -396.429          40.000  
E04  25265638.900   132771824.739        -511.887          44.000    25265637.600   101734251.364        -393.590          40.000  
J03  38537186.672   202514273.255         506.584          42.000    38537184.862   157803329.733         394.163          38.000  
J07  38294279.954   201237800.726        -396.974          37.000    38294276.431   156808657.563        -308.961          40.000  
E06  26051913.875                         698.656          28.000    26051900.131                         540.512          24.000  
G29  23977127.821   126000659.843       -2354.671          45.000    23977124.713    98182314.755       -1834.302          36.000  
C11  24355704.315   126826537.092       -2572.246          44.000    24355696.155    98070281.040       -1986.960          45.000  
C06  39963370.090   208099761.874        1093.889          38.000    39963361.226   160915893.589         833.296          28.000  
C07  40079627.918   208705149.343       -1795.923          43.000    40079617.335                1      -1390.625          41.000  
C09  41028305.050   213645150.8072        911.913          42.000    41028300.718   165203969.963         704.809          41.000  
C39  39344722.762   204878300.662        1067.397          43.000                                                                  
C40  40594806.593   211387832.218       -2070.795          41.000                                                                  
R19  20936891.660   111998252.968        -556.721          48.000    20936886.006    87109723.910        -433.838          40.000  
R03  26045199.784                       -3123.695          14.000                                                                  
R04  22881410.246   122529321.287       -2594.525          44.000    22881408.124    95300314.868       -2015.998          36.000  
R05  22475789.459   120145975.505        -425.855          45.000    22475787.812    93446850.822        -330.018          33.000  
R14  25214395.853                        1429.028          25.000                                                                  
G18  24133907.018   126824527.668        2537.923          35.000    24133904.448    98824305.693        1978.748          32.000  
S28  39118689.490   205570099.8233       -392.343          31.000  
G24  23285484.582   122366045.220        2471.765          46.000    23285483.302    95350168.070        1927.969          37.000  
G23  25363562.277                        1346.490          21.000                                                                  
S29  38695006.321   203343628.703        -392.119          45.000  
E09  27995702.897                        1540.414          27.000    27995704.715   112727101.001        1180.844          27.000  
C10  39677624.145   206611801.473       -1805.608          39.000    39677616.674   159765316.734       -1396.772          43.000  
C43  23822212.975   124048513.019       -1257.519          46.000                                                                  
G15  22049385.387   115870300.357       -1381.010          43.000                                                                  
E19  26640650.409   139997558.420       -2694.558          29.000                                                                  
E10  25648493.396   134783740.733         834.989          41.000                                                                  
E14  21930106.563   115243481.267       -5470.988          44.000                                                                  
C16                                                                  39980778.750   160986027.3791        814.118          41.000  
> 2025 09 16 02 01 47.0060000  0 30                     
S37  38294352.577   201238181.114        -405.548          40.000  
E04  25265736.919   132772342.254        -519.630          43.000    25265735.762   101734647.9191       -400.270          39.000  
J03  38537091.436   202513772.728         497.663          43.000    38537089.611   157802939.711         387.839          40.000  
J07  38294356.459   201238203.399        -405.709          37.000    38294353.246   156808971.332        -316.182          41.000  
G29  23977576.940   126003019.878       -2363.166          44.000    23977573.866    98184153.745       -1839.916          36.000  
C11  24356199.340   126829114.315       -2580.491          44.000    24356191.159    98072274.027       -1995.782          43.000  
C06  39963161.161   208098673.851        1083.409          36.000    39963152.447   160915054.6563        834.760          33.000  
C07  40079974.043   208706951.328       -1807.183          31.000    40079964.416   161385407.3573      -1395.811          37.000  
C09  41028131.136   213644244.7372        903.939          41.000    41028127.219   165203269.391         700.939          42.000  
C39  39344518.710   204877238.210        1060.746          45.000                                                                  
C40  40595205.231   211389908.120       -2077.478          43.000                                                                  
R19  20936997.097   111998816.792        -566.389          46.000    20936991.475    87110162.379        -440.126          41.000  
R03  26045781.646                       -3123.695          14.000                                                                  
R04  22881895.488   122531919.968       -2599.798          48.000    22881893.312    95302336.162       -2022.381          36.000  
R05  22475870.113   120146407.289        -435.314          38.000    22475868.669    93447186.749        -341.080          33.000  
R14  25214130.107                        1424.125          26.000                                                                  
G18  24133424.806   126821993.230        2534.731          34.000    24133422.737                        1972.912          31.000  
S28  39118765.067                        -401.367          31.000  
G24  23285015.220   122363578.520        2462.970          44.000    23285013.991    95348246.007        1919.442          36.000  
S29  38695082.221   203344027.670        -400.182          44.000  
E09  27995413.754                        1534.469          27.000    27995410.795   112725917.6541       1176.680          27.000  
C10  39677972.093   206613613.239       -1813.430          39.000    39677964.690   159766717.711       -1403.583          40.000  
C43  23822455.715   124049776.848       -1266.019          47.000                                                                  
G15  22049649.290   115871686.807       -1388.798          43.000                                                                  
E19  26641164.163   140000258.068       -2700.720          34.000                                                                  
E10  25648335.429   134782911.555         826.724          42.000                                                                  
E14  21931149.367   115248958.813       -5480.900          40.000                                                                  
E33  28052957.854   147419288.134       -2507.974          39.000                                                                  
E06                                                                  26051767.206   104899670.4831        538.564          31.000  
C16                                                                  39980577.662   160985217.440         808.243          43.000  
> 2025 09 16 02 01 48.0060000  0 29                     
S37  38294429.744   201238586.669        -406.189          43.000  
E04  25265836.220   132772863.190        -522.285          43.000    25265833.966   101735046.836        -399.925          42.000  
J03  38536996.854   202513275.042         496.371          43.000    38536994.875   157802551.883         387.298          39.000  
J07  38294433.595   201238608.927        -406.007          39.000    38294430.426   156809287.362        -315.887          37.000  
G29  23978026.762   126005383.546       -2364.869          43.000    23978023.707    98185995.546       -1843.268          30.000  
C11  24356694.887   126831695.064       -2581.708          45.000    24356686.782    98074269.603       -1994.832          46.000  
C06  39962952.915   208097588.803        1083.809          39.000    39962944.748   160914215.5102        839.373          39.000  
C07  40080320.585   208708755.768       -1804.770          41.000    40080310.106   161386803.0302      -1395.382          37.000  
C09  41027957.613   213643341.6102        903.253          37.000    41027953.019   165202570.905         697.285          42.000  
C39  39344315.308   204876178.925        1057.905          45.000                                                                  
C40  40595604.504   211391986.949       -2079.498          43.000                                                                  
R19  20937103.307   111999384.592        -568.516          47.000    20937097.524    87110604.031        -441.230          41.000  
R03  26046366.242                       -3123.695          13.000                                                                  
R04  22882381.229   122534521.394       -2602.344          42.000    22882379.035    95304359.475       -2023.807          30.000  
R05  22475951.622   120146842.449        -435.984          35.000    22475950.736    93447540.1753       -339.519          29.000  
G18  24132944.910                        2529.379          31.000    24132939.988    98820354.3681       1972.778          29.000  
S28  39118841.097                        -401.172          30.000  
G24  23284546.536   122361115.166        2461.769          44.000    23284545.187    95346326.464        1918.928          41.000  
S29  38695158.833   203344429.881        -402.722          43.000  
E09  27995122.717                        1533.908          26.000    27995120.003                        1174.308          26.000  
C10  39678320.582   206615428.255       -1815.289          41.000    39678313.337   159768121.304       -1403.474          40.000  
C43  23822699.272   124051044.402       -1269.023          46.000                                                                  
G15  22049913.823   115873076.388       -1389.805          44.000                                                                  
E19  26641678.548   140002960.187       -2702.293          34.000                                                                  
E10  25648178.387   134782085.470         825.404          44.000                                                                  
E14  21932191.845   115254439.392       -5480.733          43.000                                                                  
E33  28053435.691   147421795.436       -2508.639          40.000                                                                  
E06                                                                  26051632.178   104899133.453         534.837          25.000  
C16                                                                  39980377.110   160984409.835         807.587          37.000  
> 2025 09 16 02 01 49.0060000  0 29                     
S37  38294507.055   201238993.304        -410.394          41.000  
E04  25265935.917   132773385.486        -524.523          46.000    25265933.497   101735447.042        -402.805          42.000  
J03  38536902.502   202512778.520         493.426          43.000    38536900.312   157802165.007         384.489          39.000  
J07  38294510.980   201239015.565        -410.388          36.000    38294507.757   156809604.162        -317.754          41.000  
E06  26051501.878   136901566.1801        695.696          25.000    26051499.203   104898597.208         534.445          24.000  
G29  23978476.751   126007748.584       -2369.219          43.000    23978473.840    98187838.375       -1844.444          33.000  
C11  24357190.685   126834277.106       -2585.036          45.000    24357182.703    98076266.108       -1998.251          44.000  
C06  39962744.763   208096504.610        1081.182          39.000    39962736.603   160913377.2782        838.136          38.000  
C07  40080667.394   208710561.671       -1807.585          42.000    40080656.894   161388199.3232      -1396.792          42.000  
C09  41027784.349   213642439.6652        897.975          33.000    41027779.763   165201873.286         695.365          36.000  
C39  39344112.147   204875120.648        1055.297          43.000                                                                  
C40  40596003.989   211394066.952       -2081.885          37.000                                                                  
R19  20937209.733   111999954.288        -572.559          46.000    20937203.940    87111047.102        -444.108          43.000  
R03  26046948.506                       -3123.695          12.000                                                                  
R04  22882867.397   122537124.410       -2605.283          38.000    22882865.118    95306384.080       -2026.201          30.000  
R05  22476037.922   120147303.3353       -442.765          32.000    22476032.702    93447880.3282       -341.664          29.000  
G18  24132464.478   126816956.7323       2525.228          30.000    24132458.614                        1972.321          29.000  
S28  39118918.099   205571301.9473       -404.926          31.000  
G24  23284077.947   122358653.149        2458.619          43.000    23284076.736    95344408.153        1914.675          33.000  
S29  38695235.579   203344833.009        -405.120          45.000  
E09  27994833.148                        1528.766          26.000    27994829.849                        1171.851          26.000  
C10  39678669.372   206617244.195       -1817.677          43.000    39678662.120   159769525.533       -1408.301          39.000  
C43  23822942.907   124052313.351       -1272.742          46.000                                                                  
G15  22050178.591   115874467.591       -1392.632          44.000                                                                  
E19  26642193.078   140005663.926       -2706.041          34.000                                                                  
E10  25648021.185   134781260.861         822.134          44.000                                                                  
E14  21933234.958   115259922.166       -5485.139          46.000                                                                  
E33  28053913.092   147424304.288       -2511.665          40.000                                                                  
C16                                                                  39980176.840   160983603.077         804.622          37.000  
> 2025 09 16 02 01 50.0060000  0 30                     
S37  38294584.829   201239401.803        -412.054          42.000  
E04  25266035.559   132773910.108        -528.309          44.000    25266034.168   101735849.116        -404.258          41.000  
J03  38536808.469   202512284.098         490.877          40.000    38536806.058   157801779.707         382.033          37.000  
J07  38294588.803   201239424.069        -412.063          39.000    38294585.452   156809925.6171       -320.315          39.000  
E06  26051371.918   136900882.714         695.162          26.000    26051365.438                         531.120          25.000  
G29  23978927.270   126010115.890       -2369.245          41.000    23978924.566    98189683.058       -1845.642          33.000  
C11  24357686.953   126836861.590       -2587.860          46.000    24357679.130    98078264.674       -2000.990          47.000  
C06  39962536.996   208095422.704        1078.813          43.000    39962526.184   160912540.7312        833.773          34.000  
C07  40081014.654   208712369.522       -1811.183          38.000    40081004.147   161389597.2102      -1401.488          38.000  
C09  41027611.646   213641539.5312        894.351          37.000    41027606.871                1        694.772          33.000  
C39  39343909.507   204874064.522        1051.158          41.000                                                                  
C40  40596403.675   211396148.877       -2087.616          38.000                                                                  
R19  20937316.681   112000527.021        -577.612          45.000    20937311.041    87111492.575        -448.642          41.000  
R03  26047532.728                       -3123.695          12.000                                                                  
R04  22883353.669                       -2606.982          32.000    22883351.591    95308410.197       -2027.684          25.000  
R05  22476120.483   120147742.3532       -439.210          34.000    22476115.248    93448224.4273       -344.980          28.000  
G18  24131987.869   126814451.7753       2529.903          30.000    24131977.808                        1973.456          27.000  
S28  39118995.048   205571705.6363       -404.643          32.000  
G24  23283609.960   122356193.520        2455.109          43.000    23283608.754    95342491.471        1913.773          40.000  
G23  25362552.910                        1338.121          21.000                                                                  
S29  38695312.790   203345238.109        -409.062          45.000  
E09  27994545.558                        1528.184          25.000                                                                  
C10  39679018.618   206619062.216       -1821.772          40.000    39679011.214   159770931.016       -1407.555          34.000  
C43  23823187.057   124053584.752       -1274.515          46.000                                                                  
G15  22050443.797   115875861.163       -1397.087          45.000                                                                  
E19  26642708.117   140008369.617       -2705.948          30.000                                                                  
E10  25647864.779   134780438.596         819.279          44.000                                                                  
E14  21934278.452   115265407.331       -5489.005          41.000                                                                  
E33  28054390.398   147426815.511       -2514.848          41.000                                                                  
C16                                                                  39979976.933   160982797.990         802.695          41.000  
> 2025 09 16 02 01 51.0060000  0 27                     
S37  38294663.107   201239813.774        -414.929          40.000  
E04  25266135.984   132774438.190        -531.345          43.000    25266134.663   101736253.715        -406.255          44.000  
J03  38536715.073   202511793.131         488.840          43.000    38536712.805   157801396.1351        378.992          37.000  
J07  38294667.205   201239835.999        -413.639          37.000    38294663.203   156810246.658        -325.305          31.000  
E06  26051241.229   136900188.552         692.911          26.000    26051238.832                         530.584          25.000  
G29  23979378.387   126012486.608       -2371.202          42.000    23979375.955    98191530.495       -1848.857          32.000  
C11  24358184.069   126839449.675       -2589.591          45.000    24358176.168    98080266.085       -2003.383          38.000  
C06  39962329.937   208094344.111        1077.644          43.000    39962319.940   160911706.563         831.206          30.000  
C07  40081362.358   208714180.303       -1813.961          36.000    40081351.992   161390997.484       -1403.926          42.000  
C09  41027439.335   213640641.8421        895.960          41.000    41027435.253   165200480.1843        693.114          43.000  
C39  39343707.314   204873011.610        1050.635          45.000                                                                  
C40  40596803.966   211398233.722       -2085.321          45.000                                                                  
R19  20937424.476   112001103.767        -581.324          43.000    20937418.900    87111941.099        -451.196          40.000  
R04  22883840.701   122541927.5673      -2603.755          27.000    22883839.100                1      -2027.961          25.000  
R05  22476204.053                        -441.215          36.000    22476198.736    93448571.0263       -344.040          27.000  
G18  24131508.577                        2526.025          30.000    24131497.662                        1966.703          25.000  
G24  23283142.666   122353737.715        2453.517          44.000    23283141.517    95340577.921        1911.506          36.000  
S29  38695390.422   203345646.161        -410.575          44.000  
C10  39679368.277   206620883.103       -1823.105          44.000    39679361.007   159772339.195       -1408.377          43.000  
C43  23823431.850   124054859.582       -1276.133          48.000                                                                  
G15  22050709.685   115877258.136       -1399.396          43.000                                                                  
E19  26643223.963   140011079.036       -2711.140          34.000                                                                  
E10  25647708.959   134779619.690         816.690          45.000                                                                  
E14  21935323.128   115270896.097       -5489.536          43.000                                                                  
E33  28054868.563   147429330.569       -2516.793          42.000                                                                  
C16                                                                  39979777.690   160981995.266         800.429          38.000  
R14                                                                  25213001.384                        1115.734          15.000  
> 2025 09 16 02 01 52.0060000  0 27                     
S37  38294742.127   201240229.012        -415.948          44.000  
E04  25266237.498   132774970.214        -532.342          45.000    25266235.719   101736661.316        -408.509          43.000  
J03  38536622.375   202511305.457         487.688          41.000    38536619.200   157801016.129         381.000          39.000  
J07  38294746.265   201240251.277        -415.989          40.000    38294742.978   156810570.256        -324.567          36.000  
E06  26051109.814                         687.935          25.000    26051105.747                         528.796          26.000  
G29  23979830.370   126014861.658       -2376.865          40.000    23979827.966    98193381.103       -1851.808          32.000  
C11  24358681.767   126842041.494       -2592.445          45.000    24358673.944    98082270.144       -2006.163          43.000  
C06  39962123.471   208093268.803        1073.652          43.000    39962112.813   160910875.134         831.041          40.000  
C07  40081710.692   208715994.747       -1815.358          40.000    40081700.471   161392400.345       -1405.024          39.000  
C09  41027267.723   213639748.406         890.424          41.000    41027265.308   165199789.2032        690.244          42.000  
C39  39343505.862   204871962.173        1047.863          44.000                                                                  
C40  40597205.131   211400322.309       -2090.295          44.000                                                                  
R19  20937533.236   112001684.992        -582.388          46.000    20937527.505    87112393.151        -453.114          31.000  
R04  22884329.767                       -2602.862          28.000                                                                  
R05  22476289.391   120148647.5203       -448.753          30.000    22476282.043                        -340.500          25.000  
G18  24131027.908                        2510.315          29.000    24131018.549                        1961.327          24.000  
G24  23282676.035   122351285.444        2451.019          45.000    23282674.954    95338667.090        1909.436          40.000  
S29  38695468.877   203346058.110        -414.123          44.000  
C10  39679718.654   206622707.745       -1826.974          41.000    39679711.481   159773750.179       -1412.535          40.000  
C43  23823677.444   124056138.661       -1280.240          45.000                                                                  
G15  22050976.342   115878659.099       -1400.461          41.000                                                                  
E19  26643739.980   140013791.590       -2711.308          34.000                                                                  
E10  25647553.981   134778804.601         815.759          44.000                                                                  
E14  21936368.384   115276388.976       -5494.624          47.000                                                                  
E33  28055347.704   147431848.794       -2519.301          41.000                                                                  
C16                                                                  39979578.973   160981195.340         798.413          39.000  
R14                                                                  25212736.420                        1115.734          15.000  
> 2025 09 16 02 01 53.0060000  0 27                     
S37  38294821.661   201240646.464        -417.438          40.000  
E04  25266339.215   132775504.702        -535.284          47.000    25266336.901   101737070.811        -409.757          43.000  
J03  38536530.037   202510820.117         483.846          43.000    38536527.379   157800637.924         379.585          38.000  
J07  38294825.670   201240668.727        -417.192          37.000    38294824.972   156810895.413        -323.896          39.000  
G29  23980282.824   126017239.158       -2379.081          38.000    23980281.652    98195243.6731      -1851.801          32.000  
C11  24359179.947   126844635.990       -2595.864          44.000    24359172.190    98084276.382       -2006.515          35.000  
C06  39961917.445   208092195.668        1072.452          42.000    39961907.161   160910045.229         828.249          36.000  
C07  40082059.393   208717811.146       -1817.570          41.000    40082049.347   161393805.043       -1404.780          37.000  
C09  41027096.402   213638857.059         889.892          40.000    41027093.637   165199099.9922        687.949          40.000  
C39  39343304.795   204870914.874        1046.375          42.000                                                                  
C40  40597606.717   211402412.893       -2091.614          39.000                                                                  
R19  20937642.516   112002269.296        -584.832          46.000    20937636.659    87112847.750        -455.663          37.000  
R04  22884821.433                       -2614.258          27.000    22884815.495    95314447.4953      -2028.950          26.000  
R05  22476375.346                        -452.038          25.000    22476366.652                        -352.190          24.000  
R14  25212531.500                        1417.441          23.000    25212469.158                        1115.734          14.000  
G18  24130548.424   126806887.2193       2519.197          29.000    24130539.931                        1951.671          23.000  
G24  23282209.894   122348835.803        2449.276          46.000    23282208.844    95336758.297        1907.477          38.000  
S29  38695547.597   203346472.063        -415.293          41.000  
C10  39680069.487   206624534.604       -1828.215          37.000    39680062.426   159775162.809       -1413.364          39.000  
C43  23823923.597   124057420.377       -1281.798          43.000                                                                  
G15  22051243.481   115880062.751       -1404.100          41.000                                                                  
E19  26644256.744   140016506.557       -2714.316          32.000                                                                  
E10  25647399.555   134777992.100         812.513          44.000                                                                  
E14  21937414.087   115281884.571       -5496.919          43.000                                                                  
E33  28055827.447   147434369.545       -2521.063          43.000                                                                  
E06                                                                  26050975.156                         527.955          26.000  
C16                                                                  39979380.811   160980396.897         797.859          39.000  
> 2025 09 16 02 01 54.0060000  0 28                     
S37  38294901.893   201241067.660        -420.221          39.000  
E04  25266441.648   132776043.394        -538.236          45.000    25266439.471   101737483.571        -411.512          40.000  
J03  38536438.567   202510338.621         482.258          39.000    38536436.707   157800262.797         374.975          36.000  
J07  38294905.897   201241089.911        -420.293          37.000    38294903.580   156811223.688        -329.050          38.000  
G29  23980736.070   126019621.158       -2383.913          40.000    23980735.471    98197099.700       -1855.765          31.000  
C11  24359679.103   126847234.566       -2599.078          43.000    24359671.250    98086285.896       -2009.896          42.000  
C06  39961711.992   208091126.399        1069.200          41.000    39961701.939   160909218.494         826.752          40.000  
C07  40082408.951   208719631.656       -1820.522          41.000    40082399.138   161395212.682       -1407.932          39.000  
C09  41026926.067   213637969.561         886.763          39.000    41026919.489   165198413.7912        684.034          40.000  
C39  39343104.548   204869871.647        1043.735          42.000                                                                  
C40  40598008.996   211404507.434       -2094.543          45.000                                                                  
R19  20937752.570   112002858.534        -588.906          45.000    20937746.829    87113306.011        -459.091          40.000  
R04  22885311.456                       -2620.739          29.000                                                                  
R05  22476461.399                        -459.454          30.000    22476452.995                        -355.032          22.000  
G18  24130069.688   126804371.8222       2511.959          29.000    24130062.038                        1962.842          22.000  
G24  23281744.589   122346390.541        2445.228          46.000    23281743.502    95334852.859        1904.667          38.000  
S29  38695627.164   203346890.128        -419.270          40.000  
C10  39680421.175   206626365.502       -1832.394          40.000    39680414.056   159776578.525       -1417.064          41.000  
C43  23824170.666   124058706.556       -1285.682          45.000                                                                  
G15  22051511.369   115881470.477       -1405.756          37.000                                                                  
E19  26644770.608                       -2719.696          27.000                                                                  
E10  25647245.656   134777183.624         808.595          39.000                                                                  
E14  21938461.060   115287384.774       -5501.042          46.000                                                                  
E33  28056307.934   147436894.486       -2523.919          38.000                                                                  
E06                                                                  26050844.655   104895955.9841        523.088          26.000  
C16                                                                  39979183.417   160979601.755         794.434          41.000  
E09                                                                  27993381.961                        1159.713          25.000  
R14                                                                  25212204.386                        1115.734          15.000  
> 2025 09 16 02 01 55.0060000  0 28                     
S37  38294982.426   201241491.039        -424.542          42.000  
E04  25266544.654   132776585.003        -541.892          44.000    25266542.866   101737898.642        -415.552          39.000  
J03  38536347.397   202509859.278         479.011          40.000    38536347.214   157799889.238         374.852          42.000  
J07  38294986.455   201241513.293        -424.550          37.000    38294983.097   156811553.542        -329.889          39.000  
G29  23981189.865   126022005.812       -2385.155          35.000    23981188.217    98198958.014       -1858.694          30.000  
C11  24360178.275   126849835.756       -2601.376          44.000    24360170.736    98088297.173       -2011.569          46.000  
C06  39961507.026   208090059.311        1066.348          42.000    39961497.094   160908393.336         824.916          39.000  
C07  40082759.007   208721454.202       -1822.278          41.000    40082749.179   161396622.083       -1408.389          39.000  
C09  41026756.099   213637084.079         886.049          43.000    41026752.478   165197728.9982        685.560          41.000  
C39  39342904.534   204868830.485        1042.047          45.000                                                                  
C40  40598411.637   211406604.080       -2096.735          42.000                                                                  
R19  20937863.409   112003451.130        -592.685          45.000    20937857.653    87113766.784        -462.028          37.000  
R04  22885800.389                       -2622.717          30.000                                                                  
R05  22476546.307                        -457.822          29.000    22476538.964                        -358.194          21.000  
G24  23281279.823   122343947.604        2442.531          45.000    23281278.623    95332949.271        1905.386          40.000  
S29  38695707.232   203347310.448        -420.115          42.000  
C10  39680773.339   206628198.636       -1833.692          39.000    39680766.053   159777995.906       -1416.112          36.000  
C43  23824418.260   124059995.638       -1289.449          46.000                                                                  
R15  25775078.991                        2382.209          24.000                                                                  
G15  22051779.786   115882881.319       -1412.506          33.000                                                                  
E19  26645289.348   140021939.8391      -2723.392          27.000                                                                  
E10  25647092.650   134776378.096         804.338          37.000                                                                  
E14  21939507.777   115292887.610       -5502.548          42.000                                                                  
E33  28056788.732   147439421.389       -2528.013          38.000                                                                  
E06                                                                  26050712.293   104895434.627         520.619          26.000  
C16                                                                  39978986.419   160978808.065         794.285          38.000  
G18                                                                  24129584.204                        1954.199          23.000  
R14                                                                  25211937.233                        1115.734          15.000  
> 2025 09 16 02 01 56.0060000  0 28                     
S37  38295063.725   201241918.427        -434.894          43.000  
E04  25266648.427   132777131.002        -554.912          45.000    25266646.681   101738317.117        -426.912          37.000  
J03  38536257.057   202509383.944         467.887          40.000    38536255.562   157799518.799         366.072          38.000  
J07  38295067.757   201241940.696        -434.956          40.000    38295064.770   156811886.618        -340.135          37.000  
E06  26050589.825                         669.964          26.000    26050585.044                         513.620          26.000  
G29  23981644.614   126024395.448       -2397.424          35.000    23981644.417    98200820.008       -1868.627          29.000  
C11  24360678.821   126852441.561       -2614.089          45.000    24360671.260    98090312.180       -2022.714          42.000  
C06  39961302.925   208088996.314        1057.452          42.000    39961293.094   160907571.505         817.103          40.000  
C07  40083110.008   208723281.142       -1834.125          40.000    40083100.121   161398034.836       -1417.164          42.000  
C09  41026586.960   213636202.966         875.069          41.000    41026581.141   165197041.1293        677.126          39.000  
C39  39342705.539   204867793.529        1030.146          46.000                                                                  
C40  40598815.210   211408704.881       -2106.073          44.000                                                                  
R19  20937975.317   112004048.734        -606.311          43.000    20937969.296    87114231.574        -470.932          39.000  
R04  22886293.436   122555061.3893      -2628.715          30.000                                                                  
R05  22476631.976   120150478.8053       -468.055          29.000    22476627.481                        -362.312          23.000  
G24  23280815.839   122341509.256        2430.902          45.000    23280814.735    95331049.161        1893.850          40.000  
S29  38695788.082   203347735.155        -430.546          39.000  
C10  39681126.248   206630036.073       -1844.051          41.000    39681119.044   159779416.878       -1426.213          42.000  
C43  23824666.769   124061289.481       -1302.750          44.000                                                                  
G15  22052048.379   115884295.6293      -1422.201          36.000                                                                  
E19  26645823.481                       -2712.171          25.000                                                                  
E10  25646940.274   134775576.694         791.448          35.000                                                                  
E14  21940555.620   115298395.394       -5514.745          45.000                                                                  
E33  28057270.151   147441952.564       -2538.292          41.000                                                                  
C16                                                                  39978790.159   160978017.589         786.322          35.000  
G18                                                                  24129106.846                        1948.096          25.000  
R14                                                                  25211668.878                        1115.734          14.000  
R15                                                                  25774850.609                        1857.531          15.000  
> 2025 09 16 02 01 57.0060000  0 27                     
S37  38295145.143   201242347.026        -428.705          43.000  
E04  25266752.999   132777679.377        -548.144          46.000    25266751.133   101738737.174        -419.740          44.000  
J03  38536166.783   202508909.679         475.844          44.000    38536164.938   157799149.257         369.627          41.000  
J07  38295149.345   201242369.276        -428.518          41.000    38295146.500   156812220.382        -332.667          37.000  
E06  26050462.280                         676.191          25.000    26050457.322                         513.925          26.000  
G29  23982099.795   126026787.264       -2392.252          32.000    23982097.441                       -1864.192          22.000  
C11  24361179.694   126855049.031       -2607.101          45.000    24361171.877    98092328.264       -2016.352          48.000  
C06  39961098.984   208087934.533        1064.003          42.000    39961089.204   160906750.239         822.608          38.000  
C07  40083461.031   208725109.489       -1826.949          37.000    40083451.251   161399448.552       -1409.796          32.000  
C09  41026418.140   213635322.917         880.898          38.000    41026414.510   165196360.737         680.962          43.000  
C39  39342506.333   204866757.669        1037.345          44.000                                                                  
C40  40599218.595   211410807.120       -2101.343          40.000                                                                  
R19  20938087.440   112004649.004        -600.774          47.000    20938081.617    87114698.509        -467.958          34.000  
R04  22886783.997                       -2622.626          34.000                                                                  
R05  22476716.483   120150930.3533       -468.031          31.000    22476715.231                        -363.209          24.000  
R14  25211474.216                        1398.862          25.000                                                                  
G24  23280352.065   122339072.395        2438.042          46.000    23280350.909    95329150.190        1901.318          39.000  
S29  38695869.201   203348161.768        -426.293          44.000  
C10  39681479.423   206631875.242       -1837.781          41.000    39681472.305   159780839.111       -1421.475          38.000  
C43  23824915.420   124062585.631       -1296.258          44.000                                                                  
G15  22052318.789   115885712.5742      -1417.491          37.000                                                                  
E10  25646788.091   134774777.506         799.743          38.000                                                                  
E14  21941604.528   115303905.037       -5508.492          45.000    21941606.799    88349758.082       -4220.044          41.000  
E33  28057752.096   147444484.586       -2529.337          43.000                                                                  
C16                                                                  39978594.077   160977228.037         791.179          38.000  
G18                                                                  24128629.496                        1950.400          24.000  
R15                                                                  25774391.169                        1857.531          14.000  
> 2025 09 16 02 01 58.0060000  0 28                     
S37  38295226.561   201242773.2563       -425.049          42.000  
E04  25266857.665                        -551.397          43.000    25266855.681   101739158.863        -420.282          41.000  
J03  38536076.263   202508434.556         478.307          44.000    38536074.756   157798778.876         373.558          36.000  
J07  38295230.728   201242796.977        -424.038          37.000    38295227.766   156812553.672        -329.055          39.000  
E06  26050335.589                         672.264          25.000    26050333.252                         515.700          25.000  
G29  23982556.192                       -2395.557          31.000    23982552.396                       -1864.415          23.000  
C11  24361680.599   126857657.288       -2607.185          45.000    24361672.807    98094345.193       -2015.923          43.000  
C06  39960894.959   208086872.531        1065.038          40.000    39960885.230   160905929.087         823.843          38.000  
C07  40083812.349   208726939.282       -1829.355          39.000    40083802.690   161400863.390       -1413.095          38.000  
C09  41026249.182   213634443.064         883.103          38.000    41026243.270   165195680.303         682.989          38.000  
C39  39342307.338   204865721.217        1039.698          42.000                                                                  
C40  40599622.307   211412909.995       -2102.344          42.000                                                                  
R19  20938200.096   112005251.379        -600.840          45.000    20938194.132    87115167.034        -468.099          39.000  
R04  22887278.218   122560335.1073      -2621.796          29.000                                                                  
R05  22476801.071                        -463.426          25.000    22476804.378                        -365.442          23.000  
R14  25211217.107                        1401.922          26.000                                                                  
G18  24128168.415                        2499.562          29.000    24128154.472                        1941.550          23.000  
G24  23279888.421   122336635.353        2440.349          45.000    23279887.255                        1903.271          32.000  
S29  38695950.871   203348593.4143       -428.413          46.000  
C10  39681833.155   206633716.793       -1841.374          36.000    39681825.964   159782263.028       -1421.464          36.000  
C43  23825164.788   124063884.497       -1297.347          46.000                                                                  
R15  25773765.101                        2374.281          31.000    25773942.929                        1857.531          15.000  
G15  22052590.015   115887142.4743      -1417.281          43.000                                                                  
E19  26646849.254   140030137.0821      -2721.693          38.000                                                                  
E10  25646636.129   134773981.9471        797.372          42.000                                                                  
E14  21942653.211   115309416.612       -5510.971          44.000    21942656.060    88353981.144       -4221.130          39.000  
E33  28058233.685   147447013.976       -2524.389          42.000                                                                  
C16                                                                  39978397.792   160976437.837         792.266          42.000  
> 2025 09 16 02 01 59.0060000  0 29                     
S37  38295308.825   201243205.5282       -432.703          42.000  
E04  25266963.651   132778789.3461       -557.150          45.000    25266961.715   101739585.371        -426.094          43.000  
J03  38535986.633   202507963.262         470.538          46.000    38535984.997   157798411.788         364.954          42.000  
J07  38295313.017   201243229.243        -431.348          38.000    38295309.974   156812890.447        -335.963          41.000  
E06  26050209.441                         656.052          31.000    26050207.739   104893391.0261        503.865          26.000  
G29  23983013.327   126031584.7613      -2403.503          33.000    23983010.324                       -1875.560          24.000  
C11  24362182.603   126860271.595       -2614.493          42.000    24362174.905    98096366.675       -2023.298          47.000  
C06  39960692.066   208085816.057        1053.934          40.000    39960682.463   160905112.023         814.525          34.000  
C07  40084165.359   208728767.2963      -1839.958          39.000    40084157.304                       -1423.255          30.000  
C09  41026081.437   213633569.130         872.776          38.000    41026077.287   165195004.598         674.927          40.000  
C39  39342109.084   204864689.792        1030.157          45.000                                                                  
C40  40600027.348                1      -2116.142          42.000                                                                  
R19  20938313.897   112005860.9292       -610.284          47.000    20938308.041    87115640.744        -474.616          38.000  
R04  22887765.808   122562945.9352      -2631.289          40.000    22887756.962                       -2046.747          26.000  
R05  22476892.196                        -479.991          33.000    22476893.992                        -369.775          25.000  
R14  25210966.625   134388638.1863       1397.987          32.000    25210889.994                        1082.031          21.000  
G24  23279425.723   122334203.822        2432.665          43.000    23279424.443    95325350.6681       1894.778          34.000  
G23  25360314.374                        1318.054          23.000                                                                  
S29  38696033.833   203349029.5162       -437.623          43.000  
C10  39682188.274   206635565.620       -1850.955          36.000    39682181.027   159783692.653       -1431.426          37.000  
C43  23825415.681   124065190.577       -1306.970          47.000                                                                  
R15  25773325.102                        2372.317          26.000    25773492.587                        1857.531          15.000  
G15  22052857.959   115888566.8462      -1425.834          41.000                                                                  
E19  26647366.175   140032865.454       -2728.817          37.000    26647365.882                       -2092.805          38.000  
E10  25646485.230   134773189.417         793.317          39.000                                                                  
E14  21943704.156                       -5518.180          43.000    21943706.542    88358209.576       -4224.273          37.000  
E33  28058715.568   147449545.4811      -2531.531          43.000                                                                  
C16                                                                  39978202.597   160975651.713         784.078          37.000  
G18                                                                  24127679.980                        1937.466          22.000  
> 2025 09 16 02 02 00.0060000  0 29                     
S37  38295392.144   201243643.8743       -434.589          42.000  
E04  25267070.587   132779351.6761       -560.774          42.000    25267068.871   101740015.2191       -429.660          45.000  
J03  38535898.140   202507511.4373        468.826          46.000    38535896.093   157798048.290         366.523          40.000  
J07  38295396.397   201243665.6123       -434.027          38.000    38295393.334   156813233.2561       -337.887          38.000  
E06  26050073.830   136894061.0241        658.121          32.000    26050080.107   104892877.835         503.948          31.000  
G29  23983472.055   126033995.3923      -2409.008          42.000    23983467.547    98208289.8631      -1877.793          31.000  
C11  24362685.978   126862898.3843      -2619.553          43.000    24362678.150    98098392.709       -2023.270          43.000  
C06  39960490.430   208084759.6123       1052.043          40.000    39960481.005   160904297.5183        812.398          43.000  
C07  40084519.247   208730610.6382      -1840.554          36.000    40084509.291   161403708.3643      -1424.195          31.000  
C09  41025914.974   213632704.6063        868.028          39.000    41025911.042   165194343.3753        670.597          40.000  
C39  39341912.177   204863660.7583       1027.818          44.000                                                                  
C40  40600433.613   211417111.5353      -2115.106          37.000                                                                  
R19  20938428.955   112006475.7773       -614.024          45.000    20938423.051    87116119.323        -476.573          38.000  
R04  22888254.246   122565561.6912      -2632.050          40.000    22888245.979    95328735.6333      -2048.268          35.000  
R05  22476979.357   120152335.7723       -480.292          40.000    22476984.053    93451836.1993       -374.677          31.000  
R14  25210718.362   134387314.7963       1399.820          33.000                                                                  
G18  24127215.092   126789370.1873       2490.230          33.000    24127206.396    98796876.7891       1940.923          29.000  
G24  23278964.223   122331782.6343       2427.506          40.000    23278962.917    95323461.4291       1890.607          36.000  
G23  25360067.668                        1314.998          25.000                                                                  
S29  38696117.952   203349471.7443       -440.099          41.000  
C10  39682544.749   206637423.6763      -1854.934          36.000    39682537.234   159785133.5053      -1432.511          37.000  
C43  23825667.897   124066504.8683      -1310.924          43.000                                                                  
R15  25772872.706                        2371.890          27.000    25773043.222                        1857.531          15.000  
G15  22053132.462   115889993.2333      -1427.327          41.000                                                                  
E19  26647886.466   140035587.9861      -2729.771          35.000    26647886.056   107299994.4761      -2092.706          38.000  
E10  25646335.038   134772400.1361        790.767          40.000                                                                  
E14  21944755.414   115320467.4611      -5522.931          40.000    21944755.675    88362437.4441      -4230.801          36.000  
E33  28059198.227   147452081.1081      -2535.461          44.000                                                                  
C16                                                                  39978008.637   160974873.8503        784.872          39.000  
> 2025 09 16 02 02 01.0060000  0 28                     
S37  38295475.361   201244080.8212       -439.929          42.000  
E04  25267177.734   132779914.1931       -563.781          42.000    25267175.943   101740446.2921       -431.600          43.000  
J03  38535809.422   202507044.8803        466.694          45.000    38535807.306   157797688.8851        362.296          40.000  
J07  38295479.475                        -430.859          38.000    38295476.645   156813574.1221       -341.475          41.000  
E06  26049951.755   136893420.409         654.073          39.000    26049953.036   104892365.386         501.299          35.000  
G29  23983931.019   126036407.2232      -2412.802          42.000    23983929.292    98210180.7111      -1879.376          35.000  
C11  24363189.420                       -2617.725          44.000    24363181.613    98100435.9543      -2027.420          40.000  
C06  39960288.812   208083709.8642       1050.341          38.000    39960279.394   160903485.4272        811.527          38.000  
C07  40084873.762   208732456.4902      -1844.474          37.000    40084860.731                       -1419.598          31.000  
C09  41025748.640   213631838.1423        869.823          35.000    41025743.072                         662.778          31.000  
C39  39341715.394   204862635.1203       1025.138          46.000                                                                  
C40  40600839.792   211419227.2133      -2115.765          38.000                                                                  
R19  20938544.134                        -615.067          46.000    20938538.318    87116603.0613       -481.188          38.000  
R04  22888742.197   122568175.0183      -2635.583          44.000    22888738.276    95330785.8323      -2050.246          35.000  
R05  22477070.285   120152821.4332       -484.774          43.000    22477068.780    93452188.6032       -377.917          32.000  
G18  24126737.294                        2489.097          40.000    24126732.976    98794937.598        1937.567          37.000  
G24  23278502.926   122329357.6322       2424.296          43.000    23278501.663    95321572.8811       1889.607          39.000  
G23  25359815.895                        1315.696          24.000                                                                  
S29  38696202.583   203349916.4612       -444.357          42.000  
C10  39682901.524   206639280.9733      -1857.421          33.000    39682893.714   159786568.6892      -1437.075          38.000  
C43  23825920.253   124067818.4863      -1314.515          45.000                                                                  
G15  22053404.237   115891420.6062      -1431.128          42.000                                                                  
E19  26648406.591   140038321.6091      -2732.450          37.000    26648405.014   107302083.4371      -2093.989          33.000  
E10  25646185.506   134771613.7741        785.212          43.000                                                                  
E14  21945807.061   115325994.2421      -5526.825          38.000    21945809.178    88366679.1531      -4232.408          35.000  
E33  28059681.179   147454619.7791      -2537.998          38.000                                                                  
C16                                                                  39977814.421   160974091.7093        781.972          38.000  
R15                                                                  25772595.456                        1857.531          14.000  
> 2025 09 16 02 02 02.0060000  0 28                     
S37  38295558.711                        -440.576          44.000  
E04  25267284.715                        -565.923          44.000    25267282.671                        -432.224          41.000  
J03  38535720.954                         461.865          44.000    38535719.070                         358.008          40.000  
J07  38295563.311                        -444.678          39.000    38295560.502                        -346.289          41.000  
E06  26049826.980                         656.982          44.000    26049828.474                         501.759          41.000  
G29  23984389.931                       -2411.719          45.000    23984386.685                       -1883.936          37.000  
C11  24363693.820                       -2627.100          44.000    24363685.899                       -2034.961          47.000  
C06  39960087.658                        1043.213          39.000    39960078.028                         822.255          35.000  
C07  40085227.547                       -1827.941          34.000    40085214.891                       -1425.195          39.000  
C09  41025583.093                         862.842          37.000    41025580.198                         670.303          33.000  
C39  39341518.661                        1019.873          45.000                                                                  
C40  40601246.401                       -2120.752          39.000                                                                  
R19  20938659.562                        -609.522          46.000    20938660.684                        -479.842          38.000  
R04  22889234.418                       -2638.819          43.000    22889227.617                       -2051.367          37.000  
R05  22477156.654                        -476.074          40.000    22477173.649                        -443.002          17.000  
G18  24126262.750                        2487.549          36.000    24126258.006                        1938.037          34.000  
G24  23278041.525                        2423.730          45.000    23278040.527                        1884.717          32.000  
S29  38696287.101                        -434.625          44.000  
E09  27991125.811                        1489.438          22.000                                                                  
C10  39683258.501                       -1853.418          38.000    39683251.026                       -1441.064          35.000  
C43  23826172.895                       -1319.531          45.000                                                                  
G15  22053675.808                       -1423.099          43.000                                                                  
E19  26648925.088                       -2733.472          37.000    26648925.697                       -2099.031          38.000  
E10  25646035.652                         787.508          43.000                                                                  
E14  21946858.737                       -5525.127          38.000    21946859.633                       -4236.551          40.000  
E33  28060164.119                       -2536.015          41.000                                                                  
C16                                                                  39977620.319                         776.855          40.000  
R15                                                                  25772149.136                        1847.376          14.000  
> 2025 09 16 02 02 03.0060000  0 30                     
S37  38295642.421                        -443.799          42.000  
E04  25267391.617                        -564.947          43.000    25267389.797                        -431.817          42.000  
J03  38535632.497                         462.500          45.000    38535630.513   157796964.9661        343.886          41.000  
J07  38295646.267   201244978.8333       -461.904          39.000    38295644.196   156814261.0491       -359.740          42.000  
E06  26049702.405                         643.718          46.000    26049703.035                         500.620          42.000  
G29  23984849.394                       -2417.627          40.000    23984846.129    98213934.4601      -1898.246          37.000  
C11  24364197.612                       -2623.755          42.000    24364189.883    98104496.2463      -2047.319          41.000  
C06  39959886.412                        1034.033          41.000    39959876.990   160901865.5553        793.226          38.000  
C07  40085581.831                       -1851.465          33.000    40085570.473                       -1431.152          37.000  
C09  41025416.747                         854.150          33.000    41025414.182                         655.306          33.000  
C39  39341321.900                        1004.150          45.000                                                                  
C40  40601653.163                       -2123.633          39.000                                                                  
R19  20938775.422                        -628.613          45.000    20938776.336                        -486.555          36.000  
R04  22889725.871                       -2634.029          45.000    22889716.067                       -2049.736          31.000  
R05  22477248.150                        -490.137          44.000                                                                  
R14  25209938.960                        1399.030          26.000                                                                  
G18  24125786.842                        2485.303          39.000    24125783.248    98791049.2081       1922.533          35.000  
G24  23277580.664                        2410.693          44.000    23277580.056    95317798.5951       1867.128          33.000  
G23  25359320.590                        1318.632          31.000                                                                  
S29  38696371.531                        -445.017          43.000  
C10  39683615.373                       -1871.582          36.000    39683607.542                       -1449.512          32.000  
C43  23826425.497                       -1319.922          44.000                                                                  
G15  22053947.158                       -1444.238          42.000                                                                  
E19  26649445.099                       -2733.756          41.000    26649445.182                       -2104.483          38.000  
E10  25645885.869                         773.674          43.000                                                                  
E14  21947910.626                       -5539.367          37.000    21947913.713    88375153.3471      -4253.908          39.000  
E33  28060647.440                       -2542.606          37.000                                                                  
C16                                                                  39977426.915   160972531.4333        760.629          37.000  
E09                                                                  27990817.267                        1126.698          27.000  
R15                                                                  25771703.091                        1847.376          14.000  
> 2025 09 16 02 02 04.0060000  0 30                     
S37  38295724.983   201245393.0793       -435.596          41.000  
E04  25267497.862   132781597.1481       -560.380          42.000    25267496.285   101741736.7701       -429.036          42.000  
J03  38535543.062   202505644.7563        468.441          45.000    38535540.941   157796597.953         364.836          41.000  
J07  38295728.871   201245412.8432       -435.286          38.000    38295726.806   156814599.471        -339.270          40.000  
E06  26049578.179   136891456.4021        655.468          44.000    26049578.082   104890855.7031        502.082          43.000  
G29  23985308.104   126043644.5513      -2412.418          44.000    23985304.705    98215812.683       -1880.075          35.000  
C11  24364700.402   126873388.3523      -2621.463          41.000    24364693.336    98106523.0112      -2028.334          44.000  
C06  39959684.387   208080561.8943       1050.599          39.000    39959674.991   160901051.9162        810.546          37.000  
C07  40085935.381   208737983.9063      -1843.976          36.000    40085923.340   161409402.1293      -1426.076          35.000  
C09  41025249.585   213629239.9953        866.686          37.000    41025252.573                         673.992          32.000  
C39  39341124.604   204859558.9183       1025.499          44.000                                                                  
C40  40602059.096   211425575.5683      -2116.168          39.000                                                                  
R19  20938890.372   112008943.8753       -616.035          45.000    20938888.013    87118057.4243       -479.699          37.000  
R04  22890216.676   122576070.3463      -2628.257          44.000    22890209.262                       -2043.330          31.000  
R05  22477335.774   120154240.8233       -479.606          43.000    22477325.659    93453255.9573       -373.802          34.000  
R14  25209676.457   134381760.9513       1397.250          31.000                                                                  
G18  24125312.233   126779370.5303       2494.280          36.000    24125307.111    98789099.148        1942.086          27.000  
G24  23277119.142   122322086.4603       2424.764          44.000    23277118.319    95315907.804        1887.913          36.000  
G23  25359071.046                        1321.283          30.000                                                                  
S29  38696455.024   203351242.6733       -442.379          41.000  
E09  27990545.295                        1488.972          31.000    27990534.330   112706282.5131       1137.422          32.000  
C10  39683971.590   206644853.0433      -1856.024          33.000    39683963.832   159790877.9223      -1436.367          37.000  
C43  23826677.226   124071760.5783      -1313.724          44.000                                                                  
R15  25771130.908   137713109.3643       2380.353          25.000    25771257.977                        1847.376          15.000  
G15  22054218.522   115895699.8623      -1424.681          43.000                                                                  
E19  26649963.621   140046503.7191      -2726.102          39.000    26649963.346   107308358.3741      -2087.834          34.000  
E10  25645735.127   134769247.4711        791.415          42.000                                                                  
E14  21948962.253   115342574.3611      -5530.074          41.000    21948965.027    88379386.081       -4238.749          39.000  
E33  28061129.432   147462229.9971      -2537.083          43.000                                                                  
C16                                                                  39977232.362   160971748.7802        779.207          37.000  
> 2025 09 16 02 02 05.0060000  0 30                     
S37  38295807.711   201245826.8423       -435.260          39.000  
E04  25267604.425   132782157.2801       -558.985          41.000    25267602.766   101742165.0191       -430.419          43.000  
J03  38535453.554                         467.934          43.000    38535451.413   157796231.0911        365.374          40.000  
J07  38295811.829                        -436.096          37.000    38295809.304   156814937.1631       -337.433          38.000  
E06  26049452.748   136890797.7641        656.615          40.000    26049453.697   104890355.5801        503.213          43.000  
G29  23985766.844                       -2412.055          44.000    23985765.425    98217699.4421      -1877.573          34.000  
C11  24365203.783                       -2621.621          43.000    24365196.482    98108548.9923      -2026.857          45.000  
C06  39959482.314   208079509.9743       1050.342          37.000    39959473.014   160900238.8313        815.623          35.000  
C07  40086287.602   208739818.0853      -1844.095          34.000    40086276.620   161410824.0433      -1422.240          35.000  
C09  41025082.943                         869.043          34.000    41025079.756   165190995.5843        669.363          36.000  
C39  39340927.164                        1026.570          43.000                                                                  
C40  40602464.803                       -2115.588          36.000                                                                  
R19  20939005.537   112009560.0943       -615.520          45.000    20939000.615    87118526.1803       -477.340          37.000  
R04  22890708.372                       -2628.375          47.000    22890702.454                       -2046.376          32.000  
R05  22477426.110   120154723.6163       -480.372          42.000    22477419.528    93453647.0103       -371.599          34.000  
R14  25209419.691                        1381.918          30.000                                                                  
G18  24124838.390   126776880.5473       2492.695          38.000    24124834.685    98787164.5971       1940.645          32.000  
G24  23276657.385   122319659.1683       2425.829          42.000    23276656.807    95314017.8861       1890.718          36.000  
G23  25358826.283                        1319.639          22.000                                                                  
S29  38696538.740   203351683.3363       -440.651          38.000  
E09  27990249.547   147089753.9501       1487.447          34.000    27990250.439   112705139.5991       1140.379          33.000  
C10  39684327.499   206646706.2753      -1853.528          40.000    39684319.509   159792309.9883      -1434.043          35.000  
C43  23826929.098   124073072.0463      -1312.588          44.000                                                                  
R15  25770694.993                        2372.970          25.000    25770813.008                        1847.376          15.000  
G15  22054489.831   115897126.0313      -1424.926          44.000                                                                  
E19  26650482.441                       -2729.200          36.000    26650482.030   107310446.7831      -2086.230          30.000  
E10  25645584.364   134768455.2861        792.610          44.000                                                                  
E14  21950014.467                       -5531.596          39.000    21950016.808    88383621.7431      -4237.707          37.000  
E33  28061611.879   147464765.1151      -2536.279          39.000                                                                  
C16                                                                  39977036.618   160970960.5323        783.987          34.000  
> 2025 09 16 02 02 06.0060000  0 29                     
S37  38295887.873   201246248.9032       -416.895          43.000  
E04  25267708.057   132782701.298        -541.076          42.000    25267706.718   101742584.419        -415.826          41.000  
J03  38535361.772   202504692.7643        487.434          43.000    38535359.231   157795853.655         380.703          42.000  
J07  38295892.057   201246270.1653       -416.313          39.000    38295889.127   156815263.245        -324.187          40.000  
E06  26049325.268   136890127.496         674.469          43.000    26049326.275   104889842.037         516.039          42.000  
G29  23986223.178   126048452.8743      -2392.940          43.000    23986220.411                       -1865.462          33.000  
C11  24365704.269   126878615.4733      -2604.705          44.000    24365697.054    98110565.0512      -2013.275          42.000  
C06  39959278.154   208078446.7992       1067.972          34.000    39959268.468   160899415.4902        825.942          37.000  
C07  40086640.220   208741654.2262      -1826.276          39.000    40086628.672   161412242.0212      -1410.905          37.000  
C09  41024913.751   213627491.2023        884.647          34.000    41024907.106   165190300.2652        683.402          35.000  
C39  39340727.303   204857490.6673       1043.865          41.000                                                                  
C40  40602868.444   211429790.7413      -2099.756          37.000                                                                  
R19  20939117.983   112010161.2142       -597.985          45.000    20939111.613    87118987.4482       -466.393          37.000  
R04  22891196.486   122581317.5483      -2607.827          46.000    22891192.024    95341005.5553      -2027.037          37.000  
R05  22477515.200   120155200.5682       -460.782          43.000    22477508.427    93454016.6862       -359.136          36.000  
G18  24124361.849   126774377.1462       2513.419          40.000    24124358.046                        1958.630          31.000  
G24  23276193.423   122317221.8762       2443.337          43.000    23276192.654                        1903.718          29.000  
G23  25358575.980                        1337.861          22.000                                                                  
S29  38696619.865   203352109.6172       -422.769          43.000  
E09  27989963.804   147088252.261        1503.394          37.000    27989966.020   112703994.447        1151.760          30.000  
C10  39684681.000   206648547.8122      -1838.521          36.000    39684673.025   159793732.9922      -1420.978          38.000  
C43  23827178.394   124074369.7412      -1294.470          46.000                                                                  
G15  22054758.525   115898537.7412      -1407.655          45.000                                                                  
E19  26650998.494   140051941.9831      -2704.780          33.000    26650998.024                       -2073.198          29.000  
E10  25645430.807   134767647.559         811.604          45.000                                                                  
E14  21951063.774   115353618.3921      -5511.829          40.000    21951065.845    88387845.622       -4222.357          39.000  
E33  28062092.140   147467289.319       -2519.602          43.000                                                                  
C16                                                                  39976839.217   160970164.9953        797.057          36.000  
R15                                                                  25770368.135                        1847.376          15.000  
> 2025 09 16 02 02 07.0060000  0 30                     
S37  38295969.805   201246679.0412       -463.422          40.000  
E04  25267813.433                        -574.020          41.000    25267812.039   101743007.6321       -450.426          40.000  
J03  38535271.427   202504217.1722        440.782          44.000    38535268.948   157795483.701         343.181          39.000  
J07  38295973.608                        -447.949          37.000    38295970.908   156815598.9761       -361.293          38.000  
E06  26049199.024                         640.137          40.000    26049200.651   104889336.5161        482.696          40.000  
G29  23986681.209   126050860.3372      -2440.481          38.000    23986678.050                       -1889.880          29.000  
C11  24366206.899   126881233.4113      -2651.602          42.000    24366199.516    98112588.5113      -2049.705          43.000  
C06  39959074.336                        1057.782          30.000    39959065.681   160898598.3943        789.450          37.000  
C07  40086991.627   208743484.6163      -1871.915          34.000    40086980.960   161413660.5463      -1447.534          38.000  
C09  41024745.580                         857.422          31.000    41024737.798   165189619.1402        648.886          37.000  
C39  39340529.312   204856459.5053        997.716          39.000                                                                  
C40  40603273.847   211431901.9143      -2144.226          34.000                                                                  
R19  20939232.449   112010774.1592       -647.053          46.000    20939227.244    87119468.8183       -502.490          39.000  
R04  22891686.121   122583939.3162      -2653.354          48.000    22891682.453    95343048.8472      -2062.639          37.000  
R05  22477603.443   120155672.3503       -505.788          43.000    22477599.655                        -381.152          35.000  
G18  24123885.851   126771875.5722       2468.110          44.000    24123881.800                        1933.887          34.000  
G24  23275731.277   122314792.5302       2394.698          41.000    23275729.047                        1882.188          29.000  
G23  25358323.538                        1319.040          24.000                                                                  
S29  38696702.829   203352545.1412       -469.082          41.000  
E09  27989676.952                        1471.872          33.000    27989681.362                        1127.708          29.000  
C10  39685036.087                       -1867.090          36.000    39685028.421   159795163.8743      -1457.397          33.000  
C43  23827429.544   124075677.8853      -1342.207          44.000                                                                  
G15  22055028.692   115899957.7482      -1452.085          47.000    22055021.432                       -1099.463          37.000  
E19  26651514.407                       -2707.782          27.000    26651514.654                       -2095.870          24.000  
E10  25645278.903                         775.017          45.000    25645276.579                         595.218          39.000  
E14  21952114.828                       -5549.458          40.000    21952117.415                       -4252.054          39.000  
E33  28062573.770                       -2553.836          40.000    28062576.470                       -1960.530          35.000  
C16                                                                  39976642.784   160969374.2702        760.024          37.000  
R14                                                                  25208832.182                        1104.115          24.000  
R15                                                                  25769924.344                        1847.376          16.000  
> 2025 09 16 02 02 08.0060000  0 31                     
S37  38296050.334   201247101.8933       -409.717          38.000  
E04  25267917.627   132783802.6341       -535.793          41.000    25267915.985   101743426.8741       -411.130          37.000  
J03  38535180.203   202503737.7563        492.589          42.000    38535177.625                         382.217          41.000  
J07  38296054.263   201247123.2203       -411.193          34.000    38296051.561                        -321.882          40.000  
E06  26049072.125   136888797.1781        678.796          40.000    26049072.958   104888822.3151        519.858          40.000  
G29  23987138.400   126053262.4052      -2388.237          40.000    23987133.754    98223302.7661      -1859.025          29.000  
C11  24366707.433                       -2601.129          40.000    24366701.097                       -2012.249          43.000  
C06  39958872.747                        1070.446          34.000    39958861.973                         829.543          35.000  
C07  40087342.397                       -1822.737          32.000    40087338.118                       -1408.486          38.000  
C09  41024577.362                         886.900          31.000    41024570.160   165188943.6713        685.725          37.000  
C39  39340332.655                        1047.011          40.000                                                                  
C40  40603682.212                       -2094.387          35.000                                                                  
R19  20939348.121                        -596.567          45.000    20939338.682    87119932.4002       -461.827          38.000  
R04  22892174.436   122586553.8123      -2601.765          48.000    22892168.447    95345073.0342      -2021.582          36.000  
R05  22477694.042                        -462.433          44.000    22477685.732    93454753.3103       -353.391          35.000  
R14  25208633.755                        1420.536          26.000                                                                  
G24  23275268.129   122312358.6733       2446.605          43.000    23275264.283    95308316.3011       1904.076          33.000  
G23  25358066.288                        1343.769          31.000                                                                  
S29  38696787.354                        -422.119          41.000  
E09  27989389.518   147085234.6511       1507.493          29.000    27989397.939   112701706.2641       1154.821          36.000  
C10  39685390.311   206652240.7783      -1830.464          36.000    39685382.724   159796590.6773      -1416.325          36.000  
C43  23827679.856                       -1292.127          44.000                                                                  
G15  22055297.736   115901371.0383      -1400.224          46.000    22055292.361    90312735.1191      -1092.016          38.000  
E19  26652027.929                       -2702.966          26.000    26652034.684                       -2073.521          22.000  
E10  25645125.589   134766044.3441        815.534          43.000    25645123.146   103262283.9851        625.076          39.000  
E14  21953164.486   115364657.9381      -5506.834          40.000    21953167.233    88396307.1471      -4220.040          42.000  
E33  28063054.099   147472344.5221      -2517.250          41.000    28063057.214   112998302.4531      -1928.118          39.000  
E12  25178827.596                        -361.875          40.000                                                                  
C16                                                                  39976446.592   160968584.5023        797.519          36.000  
G18                                                                  24123404.808    98781309.8731       1964.094          38.000  
R15                                                                  25769479.041                        1847.376          18.000  
> 2025 09 16 02 02 09.0060000  0 31                     
S37  38296132.717                        -410.107          41.000  
E04  25268023.929                        -535.489          41.000    25268021.218                        -404.370          42.000  
J03  38535090.571                         496.242          44.000    38535087.763                         383.594          42.000  
J07  38296136.601                        -411.426          37.000    38296133.608                        -321.387          40.000  
E06  26048946.672                         678.628          41.000    26048947.620                         520.028          42.000  
G29  23987597.145                       -2386.967          40.000    23987588.060                       -1857.688          30.000  
C11  24367209.991                       -2598.096          43.000    24367204.338                       -2010.205          44.000  
C06  39958669.454                        1071.436          34.000    39958660.015                         824.902          37.000  
C07  40087697.082   208747157.5853      -1814.231          36.000    40087687.015                       -1403.906          38.000  
C09  41024409.887                         890.332          36.000    41024402.996                         690.088          38.000  
C39  39340131.617                        1050.244          40.000                                                                  
C40  40604083.622                       -2089.893          41.000                                                                  
R19  20939457.730                        -593.897          45.000    20939454.073                        -462.598          38.000  
R04  22892664.483                       -2601.416          47.000    22892661.833                       -2028.174          34.000  
R05  22477782.537                        -453.711          40.000    22477775.654    93455127.2113       -351.483          32.000  
R14  25208371.988                        1420.170          31.000                                                                  
G18  24122931.117                        2519.043          42.000    24122928.298                        1964.697          36.000  
G24  23274806.800                        2448.688          43.000    23274802.322                        1911.230          33.000  
G23  25357817.486                        1331.806          25.000                                                                  
S29  38696870.677                        -417.676          38.000  
C10  39685746.416                       -1829.736          38.000    39685738.200   159798021.8522      -1410.966          39.000  
C43  23827931.182                       -1289.453          43.000                                                                  
G15  22055568.489                       -1399.609          43.000    22055562.111                       -1097.412          30.000  
E19  26652548.084                       -2714.050          24.000    26652551.292                       -2079.792          21.000  
E10  25644974.190                         816.314          45.000    25644971.809                         626.995          32.000  
E14  21954216.919                       -5508.607          42.000    21954219.500                       -4219.991          42.000  
E33  28063536.819                       -2514.166          40.000    28063539.941   113000245.3731      -1922.079          39.000  
E12  25178898.734                        -356.830          41.000                                                                  
C16                                                                  39976253.068                         800.391          36.000  
E09                                                                  27989114.448                        1155.242          38.000  
R15                                                                  25769032.546                        1847.376          19.000  
> 2025 09 16 02 02 10.0060000  0 31                     
S37  38296211.779                        -416.162          41.000  
E04  25268126.509                        -535.733          40.000    25268124.450                        -414.199          41.000  
J03  38534997.317                         492.248          44.000    38534994.697                         385.741          40.000  
J07  38296215.635                        -421.045          38.000    38296212.786                        -318.895          40.000  
E06  26048818.097                         678.319          37.000    26048819.101                         521.762          41.000  
G29  23988052.500                       -2392.188          38.000    23988044.334                       -1858.387          30.000  
C11  24367709.183                       -2603.711          44.000    24367704.423                       -2008.357          44.000  
C06  39958461.465                        1065.674          36.000    39958454.703                         831.090          37.000  
C07  40088047.032   208748980.2743      -1815.917          37.000    40088036.539                       -1405.420          34.000  
C09  41024238.596                         888.775          38.000    41024233.115                         690.511          39.000  
C39  39339932.602                        1049.227          42.000                                                                  
C40  40604487.033   211438218.7313      -2089.594          40.000                                                                  
R19  20939571.036                        -599.951          43.000    20939565.629                        -467.188          36.000  
R04  22893151.195                       -2603.223          47.000    22893147.838                       -2019.131          31.000  
R05  22477866.307                        -451.660          41.000    22477861.196                        -349.870          32.000  
R14  25208104.672                        1428.118          25.000                                                                  
G18  24122453.146                        2519.720          40.000    24122451.146                        1964.775          35.000  
G24  23274341.909                        2448.916          40.000    23274335.605                        1906.030          34.000  
G23  25357562.570                        1345.621          26.000                                                                  
S29  38696950.763                        -422.412          40.000  
E09  27988827.181                        1501.330          34.000    27988827.797                        1157.697          36.000  
C10  39686098.681                       -1829.395          38.000    39686090.423   159799440.7793      -1413.328          39.000  
C43  23828178.927                       -1296.387          40.000                                                                  
G15  22055836.002                       -1405.371          46.000    22055831.470                       -1090.757          37.000  
E19  26653061.032                       -2717.221          23.000    26653063.773                       -2079.510          19.000  
E10  25644819.743                         816.314          43.000    25644818.443   103261056.7521        626.954          40.000  
E14  21955265.614                       -5513.531          43.000    21955268.406    88404767.0291      -4217.988          40.000  
E33  28064015.909                       -2517.868          40.000    28064018.883                       -1925.149          31.000  
E12  25178968.906                        -364.276          39.000                                                                  
E11  26474827.142                        1789.276          40.000                                                                  
C16                                                                  39976055.569                         801.807          34.000  
> 2025 09 16 02 02 11.0060000  0 32                     
S37  38296291.616                        -408.984          41.000  
E04  25268230.817                        -532.641          42.000    25268228.769                        -407.445          41.000  
J03  38534904.988                         493.896          42.000    38534902.817                         388.770          41.000  
J07  38296295.804                        -403.174          36.000    38296292.866                        -317.773          40.000  
E06  26048690.916                         682.168          38.000    26048691.979                         528.613          40.000  
G29  23988508.786                       -2387.598          42.000    23988503.265                       -1855.915          30.000  
C11  24368211.126                       -2592.529          44.000    24368205.479                       -2007.786          41.000  
C06  39958257.928                        1082.129          34.000    39958250.248                         829.779          36.000  
C07  40088399.926                       -1812.988          39.000    40088385.306                       -1405.224          36.000  
C09  41024068.860                         896.777          38.000    41024064.082                         693.553          38.000  
C39  39339733.846                        1054.785          41.000                                                                  
C40  40604890.373                       -2091.357          41.000                                                                  
R19  20939681.120                        -590.430          44.000    20939679.547                        -460.547          36.000  
R04  22893638.774                       -2600.488          45.000    22893635.804                       -2024.024          38.000  
R05  22477953.396                        -448.828          43.000    22477948.316                        -350.391          35.000  
R14  25207840.243                        1391.453          27.000                                                                  
G18  24121975.990                        2522.900          40.000    24121972.760                        1966.123          33.000  
G24  23273877.859                        2449.170          41.000    23273876.906                        1909.438          34.000  
G23  25357306.509                        1339.515          25.000                                                                  
S29  38697031.774                        -413.135          38.000  
E09  27988540.441                        1461.801          30.000    27988543.858                        1160.775          38.000  
C10  39686452.135                       -1823.731          36.000    39686443.981   159800864.0932      -1411.913          40.000  
C43  23828429.109                       -1289.893          42.000                                                                  
G15  22056104.744                       -1396.631          42.000    22056097.840                       -1087.012          37.000  
E19  26653579.985                       -2752.214          20.000    26653579.071                       -2077.694          19.000  
E10  25644666.445                         819.529          43.000    25644665.820                         626.629          43.000  
E14  21956315.265                       -5504.009          43.000    21956318.382                       -4216.940          39.000  
E33  28064496.533                       -2510.260          39.000    28064500.038                       -1924.923          34.000  
E12  25179038.933                        -352.720          39.000                                                                  
E11  26474486.542                        1801.157          38.000                                                                  
C16                                                                  39975858.180                         803.822          37.000  
J02                                                                  38924189.440                        -568.775          23.000  
> 2025 09 16 02 02 12.0060000  0 31                     
S37  38296374.264                        -430.664          41.000  
E04  25268337.408                        -557.053          41.000    25268335.614                        -428.277          40.000  
J03  38534815.840                         471.826          44.000    38534813.548                         369.971          39.000  
J07  38296378.397                        -461.572          38.000    38296375.343                        -332.227          39.000  
E06  26048565.355                         648.153          37.000    26048567.398                         503.997          41.000  
G29  23988968.136                       -2408.789          40.000    23988964.450                       -1875.195          30.000  
C11  24368713.930                       -2621.338          42.000    24368709.273                       -2026.953          42.000  
C06  39958054.876                        1053.760          34.000    39958048.509                         815.381          37.000  
C07  40088752.213                       -1838.428          37.000    40088742.129                       -1417.480          41.000  
C09  41023900.799                         873.535          37.000    41023897.590                         663.574          36.000  
C39  39339535.061                        1029.150          38.000                                                                  
C40  40605295.668                       -2112.793          39.000                                                                  
R19  20939798.840                        -620.166          43.000    20939795.633                        -483.496          37.000  
R04  22894129.394                       -2625.293          46.000    22894126.180                       -2038.428          37.000  
R05  22478043.943                        -474.805          41.000    22478038.431                        -366.602          33.000  
R14  25207582.050                        1390.493          27.000                                                                  
G18  24121502.891                        2496.143          41.000    24121498.341                        1948.193          38.000  
G24  23273417.331   122302632.5873       2408.494          40.000    23273414.095                        1895.068          35.000  
G23  25357052.111                        1324.259          26.000                                                                  
S29  38697115.801                        -437.695          38.000  
E09  27988258.837                        1478.093          31.000    27988259.674                        1141.295          33.000  
C10  39686807.885                       -1855.664          37.000    39686800.132                       -1428.467          37.000  
C43  23828681.594                       -1314.551          39.000                                                                  
G15  22056376.469                       -1450.146          45.000    22056370.705                       -1105.127          37.000  
E10  25644514.686                         789.664          42.000    25644515.036                         606.773          44.000  
E14  21957367.789                       -5533.916          42.000    21957370.958                       -4235.860          42.000  
E33  28064978.862                       -2537.276          39.000    28064983.142                       -1945.557          37.000  
E12  25179110.716                        -381.731          40.000                                                                  
E11  26474148.922                        1777.477          38.000                                                                  
E19                                                                  26654095.182                       -2091.347          17.000  
C16                                                                  39975664.027                         786.670          35.000  
> 2025 09 16 02 02 13.0060000  0 31                     
S37  38296455.300                        -409.961          42.000  
E04  25268441.690                        -544.359          41.000    25268440.557                        -415.013          40.000  
J03  38534725.433                         486.621          44.000    38534722.502                         381.348          39.000  
J07  38296459.098                        -421.680          39.000    38296456.322                        -320.410          38.000  
E06  26048438.863                         672.769          39.000    26048440.255                         512.745          40.000  
G29  23989425.786                       -2408.594          33.000    23989423.120                       -1861.542          31.000  
C11  24369216.608                       -2610.449          42.000    24369211.446                       -2012.451          44.000  
C06  39957851.143                        1067.822          36.000    39957845.381                         830.713          37.000  
C07  40089104.298                       -1834.766          36.000    40089093.129                       -1406.982          37.000  
C09  41023733.805   213621346.4033        864.663          37.000    41023729.540                         682.178          34.000  
C39  39339335.717                        1049.023          38.000                                                                  
C40  40605700.520                       -2102.393          36.000                                                                  
R19  20939912.907                        -597.266          44.000    20939910.222                        -463.916          37.000  
R04  22894618.587                       -2606.201          46.000    22894614.805                       -2026.026          35.000  
R05  22478130.250                        -455.343          45.000    22478126.456                        -354.102          36.000  
R14  25207308.104                        1401.848          27.000                                                                  
G18  24121024.833                        2505.469          42.000    24121021.617                        1960.840          40.000  
G24  23272953.283                        2439.893          42.000    23272951.710                        1901.318          36.000  
G23  25356792.486                        1341.684          26.000                                                                  
S29  38697197.778                        -413.721          36.000  
E09  27987976.079                        1506.157          30.000    27987974.344                        1153.917          29.000  
C10  39687162.247                       -1829.492          35.000    39687155.055                       -1418.750          37.000  
C43  23828931.961                       -1300.830          40.000                                                                  
G15  22056646.302                       -1399.951          44.000    22056639.414                       -1091.895          36.000  
E10  25644362.841                         805.003          44.000    25644361.698                         621.043          40.000  
E14  21958418.639                       -5516.583          43.000    21958421.918                       -4227.966          41.000  
E33  28065460.450                       -2526.575          38.000    28065464.608                       -1926.068          34.000  
E12  25179181.725                        -370.623          39.000                                                                  
E11  26473809.038                        1788.422          39.000                                                                  
E19                                                                  26654613.283                       -2089.392          16.000  
C16                                                                  39975468.487                         799.707          35.000  
> 2025 09 16 02 02 14.0060000  0 30                     
S37  38296536.649                        -405.469          40.000  
E04  25268547.220                        -533.943          41.000    25268545.556                        -412.002          40.000  
J03  38534633.917                         495.361          42.000    38534631.887                         384.375          40.000  
J07  38296540.564                        -409.082          35.000    38296537.534                        -319.434          40.000  
E06  26048312.771                         679.604          37.000    26048313.832                         521.696          38.000  
G29  23989883.116                       -2379.541          36.000    23989876.383                       -1863.411          29.000  
C11  24369719.368                       -2596.289          44.000    24369714.107                       -2007.861          43.000  
C06  39957649.679                        1079.004          38.000    39957642.389                         834.375          34.000  
C07  40089456.415                       -1813.281          36.000    40089447.356                       -1404.736          37.000  
C09  41023565.639                         893.896          37.000    41023560.255                         673.926          37.000  
C39  39339137.455                        1053.906          41.000                                                                  
C40  40606105.658                       -2086.719          39.000                                                                  
R19  20940028.435                        -594.336          45.000    20940025.356                        -464.404          37.000  
R04  22895106.332                       -2597.119          46.000    22895103.385                       -2022.217          38.000  
R05  22478218.234                        -552.100          31.000    22478215.244                        -351.074          33.000  
G18  24120548.532                        2523.584          44.000    24120545.766                        1961.230          39.000  
G24  23272491.536                        2446.680          38.000    23272488.908                        1906.641          35.000  
G23  25356535.918                        1330.519          27.000                                                                  
S29  38697280.053                        -409.717          38.000  
E09  27987684.549                        1500.232          31.000    27987691.779                        1156.707          31.000  
C10  39687517.350                       -1825.049          32.000    39687510.013                       -1412.305          34.000  
C43  23829184.095                       -1289.746          41.000                                                                  
G15  22056916.327                       -1396.338          45.000    22056908.057                       -1089.551          35.000  
E10  25644210.143                         814.728          44.000    25644209.063                         626.629          38.000  
E14  21959469.879                       -5512.594          40.000    21959473.606                       -4220.398          40.000  
E33  28065942.040                       -2522.344          34.000    28065946.089                       -1921.063          30.000  
E12  25179252.751                        -360.736          40.000                                                                  
E11  26473469.515                        1797.943          41.000                                                                  
E19                                                                  26655131.225                       -2105.760          14.000  
C16                                                                  39975273.171                         802.393          34.000  
> 2025 09 16 02 02 15.0060000  0 30                     
S37  38296617.273                        -410.205          40.000  
E04  25268650.793                        -536.791          43.000    25268649.910                        -414.281          41.000  
J03  38534542.438                         489.697          40.000    38534540.281                         384.180          38.000  
J07  38296620.747                        -412.207          35.000    38296617.792                        -321.631          38.000  
E06  26048185.451                         678.953          39.000    26048186.960                         520.109          39.000  
G29  23990339.361                       -2379.297          35.000    23990333.848                       -1860.352          30.000  
C11  24370220.528                       -2602.588          43.000    24370215.941                       -2013.721          44.000  
C06  39957444.933                        1073.828          37.000    39957438.423                         824.023          36.000  
C07  40089807.583                       -1820.605          30.000    40089797.848                       -1413.623          32.000  
C09  41023396.907                         889.307          35.000    41023390.864                         659.762          34.000  
C39  39338937.796                        1046.436          39.000                                                                  
C40  40606509.252                       -2092.969          38.000                                                                  
R19  20940143.069                        -599.512          44.000    20940139.625                        -470.117          37.000  
R04  22895594.050                       -2600.879          46.000    22895591.242                       -2022.608          39.000  
R05  22478308.797   120159442.4953       -488.334          39.000    22478301.900                        -352.979          37.000  
G18  24120071.296                        2519.971          45.000    24120068.212                        1962.842          37.000  
G24  23272027.657                        2441.748          41.000    23272025.880    95295054.9491       1908.738          36.000  
G23  25356279.368                        1355.008          27.000                                                                  
S29  38697361.362                        -411.719          38.000  
E09  27987401.897                        1509.042          33.000    27987405.305                        1154.672          32.000  
C10  39687870.042                       -1860.331          24.000    39687863.028                       -1421.089          27.000  
C43  23829433.919                       -1292.090          43.000                                                                  
G15  22057184.375                       -1401.514          47.000    22057177.173                       -1095.752          33.000  
E10  25644056.952                         816.518          45.000    25644056.053                         623.862          34.000  
E14  21960519.802                       -5510.032          38.000    21960524.536                       -4223.654          39.000  
E33  28066426.169                       -2572.410          29.000    28066426.877                       -1927.278          30.000  
E12  25179322.582                        -359.841          40.000                                                                  
E11  26473128.882                        1799.652          40.000                                                                  
E19                                                                  26655649.372                       -2089.710          14.000  
C16                                                                  39975076.736   160963068.8913        801.211          31.000  
> 2025 09 16 02 02 16.0060000  0 33                     
S37  38296697.120   201250501.5223       -413.904          41.000  
E04  25268754.806                        -542.080          41.000    25268753.396   101746798.5731       -413.336          43.000  
J03  38534450.305   202499902.6103        489.835          43.000    38534448.294                         380.431          37.000  
J07  38296700.396   201250518.7583       -413.297          37.000    38296697.723                        -322.390          36.000  
E06  26048057.896   136883467.2991        677.611          41.000    26048059.477   104884741.1551        519.168          40.000  
G29  23990795.665   126072481.8873      -2393.041          39.000    23990792.187    98238282.8121      -1862.909          29.000  
C11  24370721.825   126904743.7733      -2604.263          43.000    24370717.289                       -2015.106          45.000  
C06  39957240.819   208067837.5623       1072.803          36.000    39957234.092                         826.781          37.000  
C07  40090159.201                       -1821.008          36.000    40090156.074   161426445.3313      -1406.429          36.000  
C09  41023228.098                         886.670          32.000    41023221.759                         687.792          38.000  
C39  39338738.134   204847132.1003       1046.444          40.000                                                                  
C40  40606912.866   211450850.9943      -2095.013          38.000                                                                  
R19  20940257.102   112016254.6613       -602.642          44.000    20940253.569                        -471.527          37.000  
R03  26063480.488                       -3137.074          11.000                                                                  
R04  22896081.245   122607474.8883      -2605.297          45.000    22896078.628                       -2026.012          37.000  
R05  22478395.721   120159907.0652       -453.956          47.000    22478388.521    93457675.5733       -357.097          36.000  
R14  25206510.360                        1417.985          31.000                                                                  
G18  24119593.733   126749319.7453       2514.501          42.000    24119588.513    98765682.2661       1960.609          34.000  
G24  23271564.258   122292895.3923       2441.453          44.000    23271562.666                        1902.135          37.000  
G23  25356022.059   133246794.3363       1340.979          32.000                                                                  
S29  38697442.139   203356430.1763       -417.202          40.000  
E09  27987113.359                        1505.646          36.000    27987119.544                        1152.788          35.000  
C10  39688222.668                       -1833.274          30.000    39688214.035                       -1408.349          28.000  
C43  23829683.916   124087417.3913      -1296.952          41.000                                                                  
G15  22057452.684   115912696.0093      -1405.446          44.000    22057446.168                       -1096.928          38.000  
E10  25643903.253   134759620.4391        813.154          43.000    25643902.672   103257369.1011        621.184          40.000  
E14  21961570.185                       -5514.561          41.000    21961574.853    88430160.7371      -4225.959          35.000  
E12  25179392.510   132318599.7541       -360.597          40.000                                                                  
E11  26472788.361   139115441.0471       1796.615          42.000                                                                  
E19                                                                  26656163.659                       -2058.185          15.000  
C16                                                                  39974880.082                         796.169          35.000  
E33                                                                  28066906.985                       -1932.301          29.000  
J02                                                                  38924890.197                        -567.387          25.000  
> 2025 09 16 02 02 17.0060000  0 33                     
S37  38296776.606   201250919.5452       -421.515          39.000  
E04  25268858.501   132788746.9441       -548.758          41.000    25268857.022   101747217.143        -419.990          41.000  
J03  38534357.647   202499417.2912        482.101          43.000    38534355.619   157791745.4851        374.747          41.000  
J07  38296779.559   201250936.7482       -419.910          37.000    38296777.032   156818900.5901       -329.706          38.000  
E06  26047930.311   136882797.240         668.356          39.000    26047931.641   104884227.770         510.976          40.000  
G29  23991251.652                       -2403.412          38.000    23991247.836    98240148.817       -1871.580          34.000  
C11  24371222.952   126907353.1132      -2613.706          42.000    24371218.137    98132797.0393      -2021.083          38.000  
C06  39957035.917   208066770.8212       1064.779          35.000    39957028.871   160890398.4903        821.667          38.000  
C07  40090509.498   208761804.7683      -1829.369          37.000    40090498.189   161427822.4662      -1413.872          35.000  
C09  41023058.227   213617828.5533        881.754          32.000    41023051.965   165182830.1783        681.273          42.000  
C39  39338537.881   204846090.0892       1038.465          43.000                                                                  
C40  40607315.878   211452949.8152      -2101.318          40.000                                                                  
R19  20940371.037   112016863.6952       -613.059          45.000    20940367.210    87124212.9983       -476.025          38.000  
R03  26064067.572                       -3137.074          10.000                                                                  
R04  22896568.391   122610084.7312      -2613.636          49.000    22896565.966    95363388.7163      -2032.399          37.000  
R05  22478476.366   120160337.7113       -469.314          41.000    22478474.018                        -363.916          33.000  
R14  25206246.045                        1402.490          25.000    25206213.580                        1093.466          23.000  
G18  24119116.202   126746810.6202       2504.570          42.000    24119112.045    98763727.141        1952.092          37.000  
G24  23271100.401   122290458.4862       2432.904          42.000    23271098.894    95291259.8831       1895.925          35.000  
G23  25355768.030                        1328.985          28.000                                                                  
S29  38697522.453   203356853.7602       -427.426          40.000  
E09  27986830.790   147071772.8991       1496.654          34.000    27986835.097   112691382.9421       1147.583          38.000  
C10  39688574.924   206668824.1593      -1840.912          39.000    39688566.725   159809411.1393      -1423.948          39.000  
C43  23829933.621   124088718.7232      -1304.803          43.000                                                                  
R15  25765376.387                        2382.349          25.000                                                                  
G15  22057721.042   115914107.3172      -1415.394          45.000    22057714.856    90322653.8181      -1102.376          42.000  
E10  25643749.980   134758814.140         802.907          44.000    25643749.193   103256751.264         615.700          46.000  
E14  21962620.481   115414347.5341      -5520.781          43.000    21962624.408    88434388.979       -4230.635          39.000  
E33  28067404.780                       -2522.838          27.000    28067384.791                       -1926.018          21.000  
E12  25179462.358   132318966.839        -369.529          40.000                                                                  
E11  26472448.144   139113652.585        1785.550          42.000                                                                  
E19                                                                  26656675.511                       -2058.185          12.000  
C16                                                                  39974682.701   160961482.3173        792.105          37.000  
> 2025 09 16 02 02 18.0060000  0 31                     
S37  38296856.777   201251342.0382       -425.543          41.000  
E04  25268963.165   132789297.970        -555.186          43.000    25268961.834   101747639.357        -424.998          42.000  
J03  38534265.980   202498936.3362        477.156          43.000    38534263.814   157791370.639         372.187          39.000  
J07  38296859.887   201251359.2892       -425.032          38.000    38296857.271   156819229.797        -332.421          38.000  
E06  26047803.658   136882132.314         661.338          39.000    26047804.955   104883718.245         507.361          43.000  
G29  23991708.916   126077281.7733      -2406.515          43.000    23991705.368    98242021.875       -1874.931          34.000  
C11  24371724.986   126909967.1332      -2617.872          44.000    24371719.915    98134818.2822      -2023.272          43.000  
C06  39956831.855   208065708.5072       1059.927          35.000    39956824.716   160889577.0332        819.595          39.000  
C07  40090859.692   208763635.3162      -1833.398          38.000    40090850.127   161429237.9452      -1417.817          37.000  
C09  41022889.324   213616949.0902        876.508          35.000    41022882.935   165182150.0742        678.160          40.000  
C39  39338338.522   204845052.5292       1033.857          40.000                                                                  
C40  40607719.622   211455053.1832      -2105.328          38.000                                                                  
R19  20940485.994   112017478.1492       -617.691          47.000    20940481.966    87124690.9872       -482.391          37.000  
R04  22897056.321   122612698.9432      -2618.090          49.000    22897053.886    95365421.8772      -2035.579          37.000  
R05  22478565.713   120160815.3072       -467.325          42.000    22478560.883    93458392.4863       -367.187          35.000  
R14  25205981.641                        1404.907          26.000                                                                  
G18  24118639.556   126744306.0882       2502.053          43.000    24118635.488    98761775.619        1948.405          37.000  
G24  23270637.557   122288026.3452       2429.041          45.000    23270636.122    95289364.845        1890.637          33.000  
G23  25355516.712                        1331.768          26.000                                                                  
S29  38697603.688   203357281.9882       -431.191          42.000  
E09  27986547.785   147070277.981        1490.439          37.000    27986550.361   112690237.596        1142.105          36.000  
C10  39688928.785   206670667.4952      -1846.166          39.000    39688920.268   159810836.5322      -1426.946          39.000  
C43  23830184.315   124090025.2512      -1310.690          45.000                                                                  
G15  22057990.438   115915523.3002      -1419.567          47.000    22057984.253    90323757.158       -1106.247          39.000  
E10  25643597.366   134758012.544         797.381          44.000    25643596.699   103256136.980         611.320          43.000  
E14  21963671.475   115419870.948       -5526.572          43.000    21963674.901    88438621.284       -4235.408          39.000  
E33  28067892.227                       -2529.326          26.000    28067866.357                       -1941.414          22.000  
E12  25179533.077   132319338.661        -375.628          40.000                                                                  
E11  26472108.573   139111868.681        1780.688          41.000                                                                  
C16                                                                  39974486.242   160960691.5152        788.272          38.000  
J02                                                                  38925167.991   159392054.9411       -571.023          33.000  
> 2025 09 16 02 02 19.0060000  0 31                     
S37  38296938.350   201251771.4492       -440.381          42.000  
E04  25269069.436   132789856.250        -568.916          42.000    25269067.771   101748067.132        -435.647          42.000  
J03  38534175.635   202498462.389         463.717          42.000    38534173.448   157791001.368         360.933          39.000  
J07  38296941.561   201251788.652        -438.813          38.000    38296938.885   156819564.391        -342.606          40.000  
E06  26047678.522   136881474.510         647.302          37.000    26047679.370   104883214.205         496.144          41.000  
G29  23992167.704   126079692.1761      -2419.862          43.000    23992164.972    98243904.4521      -1886.446          31.000  
C11  24372228.288   126912588.4682      -2632.178          42.000    24372223.125    98136845.2972      -2034.108          44.000  
C06  39956629.243                        1045.357          35.000    39956621.707   160888760.8902        808.571          34.000  
C07  40091213.696   208765472.5322      -1846.038          36.000    40091201.351   161430658.5912      -1428.497          36.000  
C09  41022721.834                         861.670          33.000    41022715.722   165181475.2002        667.385          39.000  
C39  39338140.491   204844021.8712       1021.121          41.000                                                                  
C40  40608124.825   211457163.3342      -2120.325          38.000                                                                  
R19  20940602.278   112018100.535        -632.434          45.000    20940598.298    87125174.5511       -491.701          37.000  
R03  26065243.509                       -3137.074          11.000                                                                  
R04  22897545.499   122615319.4821      -2630.242          48.000    22897543.168    95367460.406       -2046.007          37.000  
R05  22478652.749   120161281.3812       -486.624          43.000    22478649.602    93458763.4482       -378.247          35.000  
R14  25205718.742                        1402.720          26.000                                                                  
G18  24118164.291   126741808.1641       2487.459          43.000    24118160.240    98759829.482        1938.714          37.000  
G24  23270176.071   122285601.0801       2414.482          42.000    23270174.664    95287475.324        1880.940          34.000  
G23  25355272.878                        1315.969          31.000                                                                  
S29  38697686.114   203357717.0262       -443.940          41.000  
E09  27986261.887   147068790.105        1476.676          37.000    27986266.887   112689097.474        1132.835          33.000  
C10  39689284.787   206672517.4732      -1859.184          38.000    39689275.547   159812267.1342      -1438.858          35.000  
C43  23830436.434   124091339.0452      -1323.867          44.000                                                                  
G15  22058261.126   115916946.0011      -1433.273          45.000    22058255.100    90324866.128       -1116.740          34.000  
E10  25643446.140   134757218.043         783.535          44.000    25643445.276   103255528.208         599.877          39.000  
E14  21964723.976   115425401.622       -5541.032          41.000    21964727.127    88442859.012       -4245.231          39.000  
E33  28068378.278                       -2546.701          26.000    28068353.791                       -1951.767          21.000  
E12  25179605.045   132319717.722        -389.747          39.000                                                                  
E11  26471770.388   139110091.625        1767.241          42.000                                                                  
C16                                                                  39974291.112   160959905.9912        779.128          38.000  
> 2025 09 16 02 02 20.0060000  0 31                     
S37  38297022.770                        -415.039          40.000  
E04  25269178.256                        -544.685          42.000    25269176.452   101748501.6301       -414.610          44.000  
J03  38534085.455                         489.768          44.000    38534085.518   157790638.2061        380.029          39.000  
J07  38297025.789                        -419.727          38.000    38297022.966   156819906.0371       -324.011          39.000  
E06  26047555.508                         674.226          41.000    26047556.563   104882715.8051        517.117          42.000  
G29  23992626.543                1      -2397.171          45.000    23992627.572                       -1868.896          34.000  
C11  24372734.539                       -2609.131          43.000    24372729.123    98138879.9303      -2016.995          45.000  
C06  39956429.425                        1067.938          37.000    39956421.973                         822.021          37.000  
C07  40091567.435                       -1824.480          37.000    40091555.930   161432082.0783      -1411.491          36.000  
C09  41022556.391   213615216.1753        886.579          36.000    41022550.680   165180811.6193        684.025          38.000  
C39  39337944.598   204843000.1693       1042.642          43.000                                                                  
C40  40608533.152                       -2096.240          36.000                                                                  
R19  20940720.057                        -606.718          46.000    20940717.030    87125667.3083       -474.151          37.000  
R04  22898037.396   122617950.4583      -2605.252          45.000    22898034.924    95369506.6163      -2026.115          35.000  
R05  22478739.047                        -460.930          42.000    22478740.279                        -359.424          32.000  
R14  25205456.294                        1414.550          32.000                                                                  
G18  24117691.948                1       2513.672          40.000    24117687.310    98757897.2031       1959.155          34.000  
G23  25355013.177                        1309.510          31.000                                                                  
S29  38697768.661                        -421.574          43.000  
E09  27985983.588                        1501.371          41.000    27985986.185   112687969.1461       1151.431          37.000  
C10  39689641.911   206674380.0273      -1837.575          39.000    39689633.150                       -1421.582          39.000  
C43  23830689.887                       -1300.281          43.000                                                                  
R15  25764040.514                        2394.760          25.000                                                                  
E10  25643297.425                         811.063          46.000    25643296.471   103254928.2221        621.749          39.000  
E14  21965779.280                       -5518.454          40.000    21965782.158    88447101.9091      -4227.350          40.000  
E33  28068863.505                       -2514.829          25.000    28068834.969                       -1947.552          21.000  
E12  25179679.537                        -365.049          42.000                                                                  
E11  26471434.863                        1792.897          36.000                                                                  
C16                                                                  39974098.737   160959130.9143        794.881          38.000  
G24                                                                  23269715.737    95285595.1271       1900.901          36.000  
G15                                                                  22058528.264    90325985.2131      -1097.710          36.000  
> 2025 09 16 02 02 21.0060000  0 29                     
S37  38297105.488   201252647.0013       -430.963          42.000  
E04  25269285.989                        -547.777          43.000    25269284.281   101748936.1071       -426.236          43.000  
J03  38533995.084                         486.797          43.000    38533997.103   157790276.0471        367.128          41.000  
J07  38297108.845                        -415.576          37.000    38297106.113   156820246.5961       -334.567          36.000  
E06  26047431.905                         661.010          44.000    26047432.825   104882218.4101        505.720          43.000  
G29  23993087.709   126084525.9563      -2411.139          43.000    23993084.953    98247671.5231      -1876.712          34.000  
C11  24373239.309                       -2621.582          43.000    24373233.848                       -2027.832          44.000  
C06  39956228.087                        1064.502          37.000    39956221.119                         820.605          34.000  
C07  40091921.822   208769157.4763      -1839.594          39.000    40091910.744                       -1417.676          35.000  
C09  41022390.234                         866.601          38.000    41022383.468   165180138.4353        673.769          38.000  
C39  39337748.220   204841977.0343       1028.041          42.000                                                                  
C40  40608939.782   211461405.7483      -2113.196          36.000                                                                  
R19  20940839.192                        -627.734          47.000    20940834.860    87126157.2453       -483.805          39.000  
R04  22898528.075                       -2621.387          46.000    22898525.203                       -2035.108          40.000  
R05  22478836.779                        -475.000          44.000    22478830.958                        -372.266          35.000  
G18  24117217.848                        2512.793          38.000    24117213.578    98755957.2961       1947.711          38.000  
G23  25354764.510   133240186.5153       1312.411          32.000                                                                  
S29  38697852.664   203358587.7843       -436.993          41.000  
E09  27985703.024                        1486.968          41.000    27985705.018                        1142.710          38.000  
C10  39689996.668                       -1850.195          37.000    39689989.412                       -1433.057          37.000  
C43  23830945.671   124093987.4603      -1316.215          45.000                                                                  
G15  22058803.914   115919796.4783      -1424.359          45.000    22058800.552    90327100.0121      -1107.594          40.000  
E10  25643147.857                         797.110          45.000    25643147.032                         616.742          43.000  
E14  21966833.087                       -5517.925          41.000    21966836.444                       -4233.175          38.000  
E12  25179753.246                        -367.449          40.000                                                                  
E11  26471097.493                        1790.293          36.000                                                                  
C16                                                                  39973905.356   160958351.9063        784.775          38.000  
E33                                                                  28069317.521                       -1954.547          18.000  
G24                                                                  23269256.126                        1887.256          33.000  
> 2025 09 16 02 02 22.0060000  0 31                     
S37  38297186.959   201253074.8622       -425.507          41.000  
E04  25269391.766                        -553.919          44.000    25269389.807   101749361.588        -423.638          43.000  
J03  38533906.843   202497046.3793        478.595          44.000    38533906.463   157789905.132         371.859          41.000  
J07  38297190.206   201253092.6723       -425.691          38.000    38297187.394   156820580.048        -332.085          39.000  
E06  26047306.339                         663.044          45.000    26047307.151   104881712.353         509.208          41.000  
G29  23993546.347   126086937.0642      -2405.537          44.000    23993544.795    98249554.059       -1875.167          34.000  
C11  24373742.682   126920473.3373      -2617.815          43.000    24373736.874    98142937.8503      -2024.578          42.000  
C06  39956025.066   208061507.1183       1060.927          39.000    39956017.665   160886326.1143        818.546          34.000  
C07  40092273.999   208770991.4042      -1830.538          38.000    40092263.723   161434932.4173      -1415.790          39.000  
C09  41022222.351                         877.197          33.000    41022215.081   165179460.4362        679.834          35.000  
C39  39337550.029   204840945.3762       1035.481          42.000                                                                  
C40  40609344.248   211463511.3002      -2104.657          39.000                                                                  
R19  20940955.136   112019989.1813       -619.477          48.000    20940951.349    87126642.4492       -482.054          36.000  
R03  26067000.217                       -3137.074          10.000                                                                  
R04  22899017.313   122623197.2723      -2614.893          48.000    22899014.019    95373584.6123      -2031.832          38.000  
R05  22478922.631   120162723.2573       -472.380          43.000    22478920.085    93459885.8643       -366.122          37.000  
G18  24116742.047   126734334.4223       2503.217          41.000    24116737.779    98754009.126        1949.883          37.000  
G24  23268794.573   122278340.6423       2432.308          41.000    23268794.608    95281823.3051       1892.188          36.000  
G23  25354499.567                        1321.146          32.000                                                                  
S29  38697934.734   203359018.7922       -429.373          45.000  
E09  27985417.972                        1492.786          41.000    27985421.047   112685693.6491       1145.505          40.000  
C10  39690351.648   206678075.6033      -1845.588          39.000    39690344.347   159816568.9243      -1425.758          38.000  
C43  23831196.199   124095291.5552      -1310.397          46.000                                                                  
G15  22059073.755   115921214.8312      -1419.023          44.000    22059071.072    90328207.913       -1104.383          36.000  
E10  25642996.467                         799.063          45.000    25642995.577   103253717.1991        614.348          42.000  
E14  21967885.286                       -5527.446          41.000    21967888.478    88455583.7191      -4234.451          42.000  
E12  25179825.287                        -375.994          40.000                                                                  
E11  26470758.812                        1784.760          40.000                                                                  
C16                                                                  39973710.035   160957565.5102        789.351          39.000  
E33                                                                  28069801.715                       -1942.019          18.000  
J02                                                                  38925729.962                        -572.647          24.000  
> 2025 09 16 02 02 23.0060000  0 31                     
S37  38297268.120   201253502.6402       -427.197          41.000  
E04  25269497.509   132792106.3081       -554.528          45.000    25269495.707   101749788.481        -425.413          44.000  
J03  38533814.472   202496561.2812        476.116          43.000    38533815.733   157789534.964         370.310          42.000  
J07  38297271.498   201253520.3982       -427.166          37.000    38297268.542   156820913.301        -332.081          40.000  
E06  26047180.263   136878855.3301        661.182          43.000    26047181.258   104881206.874         506.356          42.000  
G29  23994004.011   126089341.1843      -2408.795          45.000    23994002.979    98251431.233       -1877.028          34.000  
C11  24374245.834   126923094.0692      -2620.184          43.000    24374239.970    98144964.3302      -2025.197          43.000  
C06  39955821.913   208060449.6932       1056.315          40.000    39955814.342   160885508.2642        819.675          34.000  
C07  40092627.650   208772825.8642      -1834.722          37.000    40092616.136   161436350.9652      -1420.183          38.000  
C09  41022054.067   213612599.8023        876.883          36.000    41022046.803   165178783.8272        675.687          35.000  
C39  39337351.613   204839913.2612       1032.686          43.000                                                                  
C40  40609748.892   211465618.9122      -2108.984          42.000                                                                  
R19  20941069.228   112020598.8012       -621.459          46.000    20941067.856    87127127.4622       -483.658          38.000  
R03  26067587.288                       -3137.074          11.000                                                                  
R04  22899506.221   122625815.2702      -2616.860          44.000    22899503.036    95375621.3712      -2030.056          32.000  
R05  22479010.833   120163195.3823       -472.546          43.000    22479009.677    93460255.1072       -366.780          39.000  
R14  25204674.993                        1400.938          28.000                                                                  
G18  24116266.139   126731834.7772       2501.150          40.000    24116262.176    98752061.436        1947.243          38.000  
G24  23268331.937   122275915.7302       2424.875          45.000    23268333.157    95279933.663        1888.864          36.000  
G23  25354232.877   133237392.6883       1321.608          34.000                                                                  
S29  38698016.762   203359450.9322       -431.145          44.000  
E09  27985133.815   147062869.9351       1490.806          42.000    27985137.131   112684551.726        1141.529          40.000  
C10  39690707.410   206679922.5122      -1846.757          39.000    39690699.099   159817997.1522      -1428.191          38.000  
C43  23831448.313   124096604.5432      -1311.568          46.000                                                                  
G15  22059345.394   115922637.0732      -1420.474          45.000    22059341.647    90329316.176       -1106.612          37.000  
E10  25642844.558   134754057.1521        799.558          44.000    25642843.947   103253107.476         611.308          42.000  
E14  21968937.589   115447545.3161      -5529.433          41.000    21968940.353    88459821.045       -4239.250          39.000  
E33  28070312.408                       -2536.116          25.000    28070284.590                       -1931.252          17.000  
E12  25179897.422   132321253.2081       -375.672          39.000                                                                  
E11  26470419.633   139102993.2741       1782.788          37.000                                                                  
C16                                                                  39973514.472   160956778.7862        786.446          37.000  
> 2025 09 16 02 02 24.0060000  0 31                     
S37  38297349.390   201253930.4962       -425.635          42.000  
E04  25269603.303   132792663.708        -555.173          44.000    25269602.077   101750215.580        -426.351          44.000  
J03  38533726.029   202496096.4782        475.890          44.000    38533725.075   157789164.874         371.550          42.000  
J07  38297352.766   201253948.2582       -425.571          39.000    38297349.705   156821246.720        -332.230          41.000  
E06  26047055.018   136878196.038         661.869          45.000    26047055.378   104880701.707         507.202          31.000  
G29  23994460.907   126091742.7482      -2407.001          43.000    23994460.545    98253308.852       -1875.224          37.000  
C11  24374749.144   126925715.3782      -2620.540          44.000    24374743.321    98146991.3582      -2026.309          42.000  
C06  39955618.737   208059392.5752       1057.992          39.000    39955610.976   160884690.9532        820.182          34.000  
C07  40092980.103   208774660.5672      -1834.405          40.000    40092968.246   161437769.5912      -1417.040          38.000  
C09  41021886.587                         874.203          30.000    41021883.748                         678.219          26.000  
C39  39337153.343   204838881.4712       1032.668          43.000                                                                  
C40  40610153.382   211467726.7232      -2106.140          39.000                                                                  
R19  20941187.821   112021223.3372       -622.430          45.000    20941184.592    87127613.1842       -483.897          38.000  
R04  22899995.369   122628434.6032      -2618.590          37.000    22899992.277    95377659.0122      -2038.939          27.000  
R05  22479098.138   120163670.7112       -472.899          42.000    22479098.516    93460624.8072       -370.223          34.000  
R14  25204413.734                        1390.706          27.000                                                                  
G18  24115790.657   126729335.4972       2500.886          40.000    24115786.478    98750113.857        1947.239          38.000  
G24  23267871.824   122273491.1112       2425.808          45.000    23267871.686    95278044.399        1889.496          37.000  
G23  25353983.617   133236083.0702       1321.245          37.000                                                                  
S29  38698098.732   203359883.1102       -430.463          45.000  
E09  27984850.237   147061380.022        1491.655          41.000    27984853.392   112683410.130        1143.389          39.000  
C10  39691061.982   206681769.7792      -1846.075          39.000    39691053.974   159819425.5832      -1426.919          38.000  
C43  23831700.529   124097918.0382      -1312.100          43.000                                                                  
R15  25762253.765                        2387.322          25.000                                                                  
G15  22059616.034   115924059.8392      -1421.512          43.000    22059612.443    90330424.808       -1108.434          41.000  
E10  25642693.395   134753261.906         797.262          46.000    25642692.659   103252498.250         610.039          43.000  
E14  21969990.167   115453076.279       -5530.522          42.000    21969992.722    88464058.957       -4237.604          39.000  
E33  28070799.212                       -2536.050          27.000    28070767.868                       -1945.008          15.000  
E12  25179969.528   132321632.517        -377.926          39.000                                                                  
E11  26470081.180   139101213.914        1781.651          37.000                                                                  
C16                                                                  39973318.999   160955992.2292        788.597          36.000  
> 2025 09 16 02 02 25.0060000  0 31                     
S37  38297431.472   201254362.5022       -435.236          41.000  
E04  25269710.331   132793225.177        -565.116          45.000    25269708.850   101750645.785        -432.725          44.000  
J03  38533636.459   202495626.0902        467.188          44.000    38533635.410   157788798.409         363.820          41.000  
J07  38297434.945   201254380.248        -434.908          38.000    38297431.685   156821583.387        -338.928          41.000  
E06  26046930.354   136877540.214         652.851          44.000    26046930.772   104880199.159         501.110          43.000  
G29  23994921.366   126094162.4692      -2415.280          44.000    23994919.534    98255188.849       -1880.475          38.000  
C11  24375253.139   126928340.6492      -2629.039          44.000    24375247.237    98149021.2722      -2031.618          43.000  
C06  39955416.296   208058338.8482       1052.609          39.000    39955407.666   160883869.1063        814.308          40.000  
C07  40093332.611   208776498.1762      -1838.980          41.000    40093321.291   161439190.5142      -1422.616          32.000  
C09  41021717.673   213610847.8913        870.984          35.000    41021715.920                         675.862          32.000  
C39  39336955.854   204837853.5842       1025.021          42.000                                                                  
C40  40610558.712   211469837.6672      -2114.087          41.000                                                                  
R19  20941304.393   112021852.636        -633.417          47.000    20941302.308    87128102.682        -492.311          40.000  
R04  22900485.417                       -2625.059          31.000                                                                  
R05  22479189.942   120164152.5473       -481.046          45.000    22479188.328    93460997.3272       -374.843          37.000  
R14  25204153.483                        1386.532          26.000    25204133.209                        1085.268          24.000  
G18  24115315.836   126726840.2662       2492.399          40.000    24115311.606    98748169.528        1942.685          40.000  
G24  23267409.965   122271070.7422       2418.003          44.000    23267411.098    95276158.213        1885.544          38.000  
G23  25353730.805   133234754.4502       1318.109          34.000                                                                  
S29  38698181.348   203360318.2892       -438.657          44.000  
E09  27984567.381   147059892.995        1485.012          42.000    27984570.152   112682270.723        1137.821          40.000  
C10  39691417.316   206683619.8422      -1851.539          40.000    39691409.358   159820856.2392      -1433.025          35.000  
C43  23831953.853   124099235.3872      -1320.939          46.000                                                                  
R15  25761807.989   137663290.4843       2377.722          25.000                                                                  
G15  22059887.362   115925487.0382      -1430.574          45.000    22059883.957    90331536.972       -1114.337          34.000  
E10  25642542.744   134752470.974         788.143          44.000    25642542.032   103251892.207         602.993          42.000  
E14  21971043.243   115458610.619       -5535.905          46.000    21971046.107    88468299.588       -4241.943          41.000  
E33  28071280.305                       -2536.541          26.000    28071253.310                       -1945.008          12.000  
E12  25180042.380   132322016.492        -387.347          39.000                                                                  
E11  26469743.419   139099438.447        1772.827          37.000                                                                  
C16                                                                  39973124.223   160955208.5302        782.196          39.000  
